index,CODIGO,ENTIDAD,DIRECCION,COMUNA,HORARIO,LONGITUD,LATITUD,CATEGORIA,FUNCIONES
0,L1,Metro San Pablo L1,Av. San Pablo 6190,LO PRADO,"Lunes a Viernes: 6:00 a 23:00 horas, Sábados: 6:30 a 23:00 horas, Domingos y festivos: 8:00 a 22:30 horas.",-70.723068,-33.444355,Metro,"Venta de tarjeta, Carga de tarjeta, Consulta de saldo, Activacion de carga remota"
1,L1,Metro Neptuno,Av. Neptuno Oriente Frente Al 260,LO PRADO,"Lunes a Viernes: 6:00 a 23:00 horas, Sábados: 6:30 a 23:00 horas, Domingos y festivos: 8:00 a 22:30 horas.",-70.723086,-33.451453,Metro,"Venta de tarjeta, Carga de tarjeta, Consulta de saldo, Activacion de carga remota"
2,L1,Metro Pajaritos,Av. General Bonilla 5900,LO PRADO,"Lunes a Viernes: 6:00 a 23:00 horas, Sábados: 6:30 a 23:00 horas, Domingos y festivos: 8:00 a 22:30 horas.",-70.714218,-33.457279,Metro,"Venta de tarjeta, Carga de tarjeta, Consulta de saldo, Activacion de carga remota"
3,L1,Metro Las Rejas,Av. Libertador Bernardo O Higgins 6056,ESTACION CENTRAL,"Lunes a Viernes: 6:00 a 23:00 horas, Sábados: 6:30 a 23:00 horas, Domingos y festivos: 8:00 a 22:30 horas.",-70.706398,-33.457802,Metro,"Venta de tarjeta, Carga de tarjeta, Consulta de saldo, Activacion de carga remota"
4,L1,Metro Ecuador,Av. Libertador Bernardo O Higgins Frente Al 4620,ESTACION CENTRAL,"Lunes a Viernes: 6:00 a 23:00 horas, Sábados: 6:30 a 23:00 horas, Domingos y festivos: 8:00 a 22:30 horas.",-70.699623,-33.456448,Metro,"Venta de tarjeta, Carga de tarjeta, Consulta de saldo, Activacion de carga remota"
5,L1,Metro San Alberto Hurtado,Av. Libertador Bernardo O Higgins Frente Al 4102,ESTACION CENTRAL,"Lunes a Viernes: 6:00 a 23:00 horas, Sábados: 6:30 a 23:00 horas, Domingos y festivos: 8:00 a 22:30 horas.",-70.692307,-33.454479,Metro,"Venta de tarjeta, Carga de tarjeta, Consulta de saldo, Activacion de carga remota"
6,L1,Metro Universidad De Santiago,Av. Libertador Bernardo O Higgins Frente Al 3702,ESTACION CENTRAL,"Lunes a Viernes: 6:00 a 23:00 horas, Sábados: 6:30 a 23:00 horas, Domingos y festivos: 8:00 a 22:30 horas.",-70.688026,-33.453590,Metro,"Venta de tarjeta, Carga de tarjeta, Consulta de saldo, Activacion de carga remota"
7,L1,Metro Estacion Central,Av. Libertador Bernardo O Higgins Frente Al 3322,ESTACION CENTRAL,"Lunes a Viernes: 6:00 a 23:00 horas, Sábados: 6:30 a 23:00 horas, Domingos y festivos: 8:00 a 22:30 horas.",-70.679977,-33.451984,Metro,"Venta de tarjeta, Carga de tarjeta, Consulta de saldo, Activacion de carga remota"
8,L1,Metro Union Latinoamericana,Av. Libertador Bernardo O Higgins 2841,SANTIAGO,"Lunes a Viernes: 6:00 a 23:00 horas, Sábados: 6:30 a 23:00 horas, Domingos y festivos: 8:00 a 22:30 horas.",-70.673515,-33.449131,Metro,"Venta de tarjeta, Carga de tarjeta, Consulta de saldo, Activacion de carga remota"
9,L1,Metro Republica,Av. Libertador Bernardo O Higgins 2275,SANTIAGO,"Lunes a Viernes: 6:00 a 23:00 horas, Sábados: 6:30 a 23:00 horas, Domingos y festivos: 8:00 a 22:30 horas.",-70.666336,-33.447174,Metro,"Venta de tarjeta, Carga de tarjeta, Consulta de saldo, Activacion de carga remota"
10,L1,Metro Los Heroes L1,Av. Libertador Bernardo O Higgins 1774,SANTIAGO,"Lunes a Viernes: 6:00 a 23:00 horas, Sábados: 6:30 a 23:00 horas, Domingos y festivos: 8:00 a 22:30 horas.",-70.661224,-33.446800,Metro,"Venta de tarjeta, Carga de tarjeta, Consulta de saldo, Activacion de carga remota"
11,L1,Metro La Moneda,Av. Libertador Bernardo O Higgins 1330,SANTIAGO,"Lunes a Viernes: 6:00 a 23:00 horas, Sábados: 6:30 a 23:00 horas, Domingos y festivos: 8:00 a 22:30 horas.",-70.654968,-33.445293,Metro,"Venta de tarjeta, Carga de tarjeta, Consulta de saldo, Activacion de carga remota"
12,L1,Metro Universidad De Chile L1,Av. Libertador Bernardo O Higgins 1020,SANTIAGO,"Lunes a Viernes: 6:00 a 23:00 horas, Sábados: 6:30 a 23:00 horas, Domingos y festivos: 8:00 a 22:30 horas.",-70.650337,-33.444057,Metro,"Venta de tarjeta, Carga de tarjeta, Consulta de saldo, Activacion de carga remota"
13,L1,Metro Santa Lucia,Av. Libertador Bernardo O Higgins N°511,SANTIAGO,"Lunes a Viernes: 6:00 a 23:00 horas, Sábados: 6:30 a 23:00 horas, Domingos y festivos: 8:00 a 22:30 horas.",-70.762993,-33.501205,Metro,"Venta de tarjeta, Carga de tarjeta, Consulta de saldo, Activacion de carga remota"
14,L1,Metro Universidad Catolica,Av. Libertador Bernardo O Higgins 270,SANTIAGO,"Lunes a Viernes: 6:00 a 23:00 horas, Sábados: 6:30 a 23:00 horas, Domingos y festivos: 8:00 a 22:30 horas.",-70.639809,-33.439957,Metro,"Venta de tarjeta, Carga de tarjeta, Consulta de saldo, Activacion de carga remota"
15,L1,Metro Baquedano L1,Av. Providencia 011,PROVIDENCIA,"Lunes a Viernes: 6:00 a 23:00 horas, Sábados: 6:30 a 23:00 horas, Domingos y festivos: 8:00 a 22:30 horas.",-70.634651,-33.437386,Metro,"Venta de tarjeta, Carga de tarjeta, Consulta de saldo, Activacion de carga remota"
16,L1,Metro Salvador,Av. Providencia 700,PROVIDENCIA,"Lunes a Viernes: 6:00 a 23:00 horas, Sábados: 6:30 a 23:00 horas, Domingos y festivos: 8:00 a 22:30 horas.",-70.625229,-33.432384,Metro,"Venta de tarjeta, Carga de tarjeta, Consulta de saldo, Activacion de carga remota"
17,L1,Metro Manuel Montt,Av. Providencia 1337,PROVIDENCIA,"Lunes a Viernes: 6:00 a 23:00 horas, Sábados: 6:30 a 23:00 horas, Domingos y festivos: 8:00 a 22:30 horas.",-70.619820,-33.428638,Metro,"Venta de tarjeta, Carga de tarjeta, Consulta de saldo, Activacion de carga remota"
18,L1,Metro Pedro De Valdivia,Av. Providencia 1880,PROVIDENCIA,"Lunes a Viernes: 6:00 a 23:00 horas, Sábados: 6:30 a 23:00 horas, Domingos y festivos: 8:00 a 22:30 horas.",-70.613861,-33.425358,Metro,"Venta de tarjeta, Carga de tarjeta, Consulta de saldo, Activacion de carga remota"
19,L1,Metro Los Leones L1,Av. Nueva Providencia 2249,PROVIDENCIA,"Lunes a Viernes: 6:00 a 23:00 horas, Sábados: 6:30 a 23:00 horas, Domingos y festivos: 8:00 a 22:30 horas.",-70.608475,-33.422710,Metro,"Venta de tarjeta, Carga de tarjeta, Consulta de saldo, Activacion de carga remota"
20,L1,Metro Tobalaba L1,Av. Tobalaba 117,PROVIDENCIA,"Lunes a Viernes: 6:00 a 23:00 horas, Sábados: 6:30 a 23:00 horas, Domingos y festivos: 8:00 a 22:30 horas.",-70.600754,-33.419029,Metro,"Venta de tarjeta, Carga de tarjeta, Consulta de saldo, Activacion de carga remota"
21,L1,Metro El Golf,Av. Apoquindo Frente Al Nº3231,LAS CONDES,"Lunes a Viernes: 6:00 a 23:00 horas, Sábados: 6:30 a 23:00 horas, Domingos y festivos: 8:00 a 22:30 horas.",-70.596329,-33.416775,Metro,"Venta de tarjeta, Carga de tarjeta, Consulta de saldo, Activacion de carga remota"
22,L1,Metro Alcantara,Av. Apoquindo Frente Al 3885,LAS CONDES,"Lunes a Viernes: 6:00 a 23:00 horas, Sábados: 6:30 a 23:00 horas, Domingos y festivos: 8:00 a 22:30 horas.",-70.590027,-33.415928,Metro,"Venta de tarjeta, Carga de tarjeta, Consulta de saldo, Activacion de carga remota"
23,L1,Metro Escuela Militar,Av. Apoquindo Frente Al 4502,LAS CONDES,"Lunes a Viernes: 6:00 a 23:00 horas, Sábados: 6:30 a 23:00 horas, Domingos y festivos: 8:00 a 22:30 horas.",-70.582848,-33.413406,Metro,"Venta de tarjeta, Carga de tarjeta, Consulta de saldo, Activacion de carga remota"
24,L1,Metro Manquehue,Av. Apoquindo Frente Al 5875,LAS CONDES,"Lunes a Viernes: 6:00 a 23:00 horas, Sábados: 6:30 a 23:00 horas, Domingos y festivos: 8:00 a 22:30 horas.",-70.569252,-33.409248,Metro,"Venta de tarjeta, Carga de tarjeta, Consulta de saldo, Activacion de carga remota"
25,L1,Metro Hernando De Magallanes,Av. Apoquindo 7095,LAS CONDES,"Lunes a Viernes: 6:00 a 23:00 horas, Sábados: 6:30 a 23:00 horas, Domingos y festivos: 8:00 a 22:30 horas.",-70.554070,-33.408165,Metro,"Venta de tarjeta, Carga de tarjeta, Consulta de saldo, Activacion de carga remota"
26,L1,Metro Los Dominicos,Av. Apoquindo 8613,LAS CONDES,"Lunes a Viernes: 6:00 a 23:00 horas, Sábados: 6:30 a 23:00 horas, Domingos y festivos: 8:00 a 22:30 horas.",-70.544495,-33.407986,Metro,"Venta de tarjeta, Carga de tarjeta, Consulta de saldo, Activacion de carga remota"
27,L2,Metro Vespucio Norte,Ignacio Carrera Pinto Altura 661,RECOLETA,"Lunes a Viernes: 6:00 a 23:00 horas, Sábados: 6:30 a 23:00 horas, Domingos y festivos: 8:00 a 22:30 horas.",-70.646229,-33.381132,Metro,"Venta de tarjeta, Carga de tarjeta, Consulta de saldo, Activacion de carga remota"
28,L2,Metro Zapadores,Av. Recoleta 3754,RECOLETA,"Lunes a Viernes: 6:00 a 23:00 horas, Sábados: 6:30 a 23:00 horas, Domingos y festivos: 8:00 a 22:30 horas.",-70.642593,-33.391327,Metro,"Venta de tarjeta, Carga de tarjeta, Consulta de saldo, Activacion de carga remota"
29,L2,Metro Dorsal,Av. Recoleta 3202,RECOLETA,"Lunes a Viernes: 6:00 a 23:00 horas, Sábados: 6:30 a 23:00 horas, Domingos y festivos: 8:00 a 22:30 horas.",-70.642876,-33.397617,Metro,"Venta de tarjeta, Carga de tarjeta, Consulta de saldo, Activacion de carga remota"
30,L2,Metro Einstein,Av. Einstein 601,RECOLETA,"Lunes a Viernes: 6:00 a 23:00 horas, Sábados: 6:30 a 23:00 horas, Domingos y festivos: 8:00 a 22:30 horas.",-70.643250,-33.405617,Metro,"Venta de tarjeta, Carga de tarjeta, Consulta de saldo, Activacion de carga remota"
31,L2,Metro Cementerios,Av. Recoleta 1502,RECOLETA,"Lunes a Viernes: 6:00 a 23:00 horas, Sábados: 6:30 a 23:00 horas, Domingos y festivos: 8:00 a 22:30 horas.",-70.643768,-33.413712,Metro,"Venta de tarjeta, Carga de tarjeta, Consulta de saldo, Activacion de carga remota"
32,L2,Metro Cerro Blanco,Av. Recoleta 860,RECOLETA,"Lunes a Viernes: 6:00 a 23:00 horas, Sábados: 6:30 a 23:00 horas, Domingos y festivos: 8:00 a 22:30 horas.",-70.645004,-33.422512,Metro,"Venta de tarjeta, Carga de tarjeta, Consulta de saldo, Activacion de carga remota"
33,L2,Metro Patronato,Av. Recoleta 301,RECOLETA,"Lunes a Viernes: 6:00 a 23:00 horas, Sábados: 6:30 a 23:00 horas, Domingos y festivos: 8:00 a 22:30 horas.",-70.646835,-33.429024,Metro,"Venta de tarjeta, Carga de tarjeta, Consulta de saldo, Activacion de carga remota"
34,L2,Metro Puente Cal Y Canto L2,General Mackenna 1100,SANTIAGO,"Lunes a Viernes: 6:00 a 23:00 horas, Sábados: 6:30 a 23:00 horas, Domingos y festivos: 8:00 a 22:30 horas.",-70.653557,-33.433472,Metro,"Venta de tarjeta, Carga de tarjeta, Consulta de saldo, Activacion de carga remota"
35,L2,Metro Santa Ana L2,Compañía De Jesús N°1625,SANTIAGO,"Lunes a Viernes: 6:00 a 23:00 horas, Sábados: 6:30 a 23:00 horas, Domingos y festivos: 8:00 a 22:30 horas.",-70.660683,-33.439316,Metro,"Venta de tarjeta, Carga de tarjeta, Consulta de saldo, Activacion de carga remota"
36,L2,Metro Los Heroes L2,Av. Libertador Bernardo O Higgins 1774,SANTIAGO,"Lunes a Viernes: 6:00 a 23:00 horas, Sábados: 6:30 a 23:00 horas, Domingos y festivos: 8:00 a 22:30 horas.",-70.661224,-33.446800,Metro,"Venta de tarjeta, Carga de tarjeta, Consulta de saldo, Activacion de carga remota"
37,L2,Metro Toesca,Toesca 1635,SANTIAGO,"Lunes a Viernes: 6:00 a 23:00 horas, Sábados: 6:30 a 23:00 horas, Domingos y festivos: 8:00 a 22:30 horas.",-70.667053,-33.454498,Metro,"Venta de tarjeta, Carga de tarjeta, Consulta de saldo, Activacion de carga remota"
38,L2,Metro Parque O Higgins,Av. Manuel Antonio Matta 1704,SANTIAGO,"Lunes a Viernes: 6:00 a 23:00 horas, Sábados: 6:30 a 23:00 horas, Domingos y festivos: 8:00 a 22:30 horas.",-70.709549,-33.365799,Metro,"Venta de tarjeta, Carga de tarjeta, Consulta de saldo, Activacion de carga remota"
39,L2,Metro Rondizzoni,Av. General Rondizzoni 1650,SANTIAGO,"Lunes a Viernes: 6:00 a 23:00 horas, Sábados: 6:30 a 23:00 horas, Domingos y festivos: 8:00 a 22:30 horas.",-70.656738,-33.470383,Metro,"Venta de tarjeta, Carga de tarjeta, Consulta de saldo, Activacion de carga remota"
40,L2,Metro Franklin L2,Placer 1310,SANTIAGO,"Lunes a Viernes: 6:00 a 23:00 horas, Sábados: 6:30 a 23:00 horas, Domingos y festivos: 8:00 a 22:30 horas.",-70.650230,-33.475857,Metro,"Venta de tarjeta, Carga de tarjeta, Consulta de saldo, Activacion de carga remota"
41,L2,Metro El Llano,Gran Avenida Jose Miguel Carrera Frente Al 3080,SAN MIGUEL,"Lunes a Viernes: 6:00 a 23:00 horas, Sábados: 6:30 a 23:00 horas, Domingos y festivos: 8:00 a 22:30 horas.",-70.649086,-33.483219,Metro,"Venta de tarjeta, Carga de tarjeta, Consulta de saldo, Activacion de carga remota"
42,L2,Metro San Miguel,Gran Avenida José Miguel Carrera Frente Al 3806,SAN MIGUEL,"Lunes a Viernes: 6:00 a 23:00 horas, Sábados: 6:30 a 23:00 horas, Domingos y festivos: 8:00 a 22:30 horas.",-70.650581,-33.489059,Metro,"Venta de tarjeta, Carga de tarjeta, Consulta de saldo, Activacion de carga remota"
43,L2,Metro Lo Vial,Gran Avenida José Miguel Carrera Frente Al 4688,SAN MIGUEL,"Lunes a Viernes: 6:00 a 23:00 horas, Sábados: 6:30 a 23:00 horas, Domingos y festivos: 8:00 a 22:30 horas.",-70.652260,-33.496746,Metro,"Venta de tarjeta, Carga de tarjeta, Consulta de saldo, Activacion de carga remota"
44,L2,Metro Departamental,Gran Avenida José Miguel Carrera Frente Al 5350,SAN MIGUEL,"Lunes a Viernes: 6:00 a 23:00 horas, Sábados: 6:30 a 23:00 horas, Domingos y festivos: 8:00 a 22:30 horas.",-70.654289,-33.502548,Metro,"Venta de tarjeta, Carga de tarjeta, Consulta de saldo, Activacion de carga remota"
45,L2,Metro Ciudad Del Niño,Gran Avenida José Miguel Carrera Frente Al 5940,SAN MIGUEL,"Lunes a Viernes: 6:00 a 23:00 horas, Sábados: 6:30 a 23:00 horas, Domingos y festivos: 8:00 a 22:30 horas.",-70.656517,-33.509830,Metro,"Venta de tarjeta, Carga de tarjeta, Consulta de saldo, Activacion de carga remota"
46,L2,Metro Lo Ovalle,Gran Avenida José Miguel  Carrera 6560 - 6559,LA CISTERNA,"Lunes a Viernes: 6:00 a 23:00 horas, Sábados: 6:30 a 23:00 horas, Domingos y festivos: 8:00 a 22:30 horas.",-70.658150,-33.517353,Metro,"Venta de tarjeta, Carga de tarjeta, Consulta de saldo, Activacion de carga remota"
47,L2,Metro El Parron,Gran Avenida José Miguel Carrera 7958,LA CISTERNA,"Lunes a Viernes: 6:00 a 23:00 horas, Sábados: 6:30 a 23:00 horas, Domingos y festivos: 8:00 a 22:30 horas.",-70.661766,-33.527534,Metro,"Venta de tarjeta, Carga de tarjeta, Consulta de saldo, Activacion de carga remota"
48,L2,Metro La Cisterna L2,Gran Avenida José Miguel Carrera 8870,LA CISTERNA,"Lunes a Viernes: 6:00 a 23:00 horas, Sábados: 6:30 a 23:00 horas, Domingos y festivos: 8:00 a 22:30 horas.",-70.664406,-33.537651,Metro,"Venta de tarjeta, Carga de tarjeta, Consulta de saldo, Activacion de carga remota"
49,L2,Metro El Bosque,Ernesto Riquelme 80,SAN BERNARDO,"Lunes a Viernes: 6:00 a 23:00 horas, Sábados: 6:30 a 23:00 horas, Domingos y festivos: 8:00 a 22:30 horas.",-70.667236,-33.545513,Metro,"Venta de tarjeta, Carga de tarjeta, Consulta de saldo, Activacion de carga remota"
50,L2,Metro Observatorio,Av. Padre Hurtado 11828,EL BOSQUE,"Lunes a Viernes: 6:00 a 23:00 horas, Sábados: 6:30 a 23:00 horas, Domingos y festivos: 8:00 a 22:30 horas.",-70.670341,-33.560345,Metro,"Venta de tarjeta, Carga de tarjeta, Consulta de saldo, Activacion de carga remota"
51,L2,Metro Copa Lo Martinez,Av. Padre Hurtado 12287,EL BOSQUE,"Lunes a Viernes: 6:00 a 23:00 horas, Sábados: 6:30 a 23:00 horas, Domingos y festivos: 8:00 a 22:30 horas.",-70.673638,-33.570657,Metro,"Venta de tarjeta, Carga de tarjeta, Consulta de saldo, Activacion de carga remota"
52,L2,Metro Hospital El Pino,Av. Padre Hurtado 13378,EL BOSQUE,"Lunes a Viernes: 6:00 a 23:00 horas, Sábados: 6:30 a 23:00 horas, Domingos y festivos: 8:00 a 22:30 horas.",-70.676324,-33.582233,Metro,"Venta de tarjeta, Carga de tarjeta, Consulta de saldo, Activacion de carga remota"
53,L3,Metro Plaza Quilicura,Av. Bernardo O Higgins 24   ,QUILICURA,"Lunes a Viernes: 6:00 a 23:00 horas, Sábados: 6:30 a 23:00 horas, Domingos y festivos: 8:00 a 22:30 horas.",-70.729912,-33.364983,Metro,"Venta de tarjeta, Carga de tarjeta, Consulta de saldo, Activacion de carga remota"
54,L3,Metro Lo Cruzat,Av. Manuel Antonio Matta 1034,QUILICURA,"Lunes a Viernes: 6:00 a 23:00 horas, Sábados: 6:30 a 23:00 horas, Domingos y festivos: 8:00 a 22:30 horas.",-70.719841,-33.366730,Metro,"Venta de tarjeta, Carga de tarjeta, Consulta de saldo, Activacion de carga remota"
55,L3,Metro Ferrocarril,Av. Manuel Antonio Matta 1950,QUILICURA,"Lunes a Viernes: 6:00 a 23:00 horas, Sábados: 6:30 a 23:00 horas, Domingos y festivos: 8:00 a 22:30 horas.",-70.705925,-33.365486,Metro,"Venta de tarjeta, Carga de tarjeta, Consulta de saldo, Activacion de carga remota"
56,L3,Metro Los Libertadores,Av. Américo Vespucio 2500,QUILICURA,"Lunes a Viernes: 6:00 a 23:00 horas, Sábados: 6:30 a 23:00 horas, Domingos y festivos: 8:00 a 22:30 horas.",-70.758102,-33.384258,Metro,"Venta de tarjeta, Carga de tarjeta, Consulta de saldo, Activacion de carga remota"
57,L3,Metro Cardenal Caro,Av. José María Caro 1875,CONCHALI,"Lunes a Viernes: 6:00 a 23:00 horas, Sábados: 6:30 a 23:00 horas, Domingos y festivos: 8:00 a 22:30 horas.",-70.685539,-33.373062,Metro,"Venta de tarjeta, Carga de tarjeta, Consulta de saldo, Activacion de carga remota"
58,L3,Metro Vivaceta,Av. Independencia 4765,CONCHALI,"Lunes a Viernes: 6:00 a 23:00 horas, Sábados: 6:30 a 23:00 horas, Domingos y festivos: 8:00 a 22:30 horas.",-70.679634,-33.385063,Metro,"Venta de tarjeta, Carga de tarjeta, Consulta de saldo, Activacion de carga remota"
59,L3,Metro Conchali,Av. Independencia 3279,CONCHALI,"Lunes a Viernes: 6:00 a 23:00 horas, Sábados: 6:30 a 23:00 horas, Domingos y festivos: 8:00 a 22:30 horas.",-70.670349,-33.397388,Metro,"Venta de tarjeta, Carga de tarjeta, Consulta de saldo, Activacion de carga remota"
60,L3,Metro Plaza Chacabuco,Julio Martinez Pradanus 1500,INDEPENDENCIA,"Lunes a Viernes: 6:00 a 23:00 horas, Sábados: 6:30 a 23:00 horas, Domingos y festivos: 8:00 a 22:30 horas.",-70.660928,-33.406079,Metro,"Venta de tarjeta, Carga de tarjeta, Consulta de saldo, Activacion de carga remota"
61,L3,Metro Hospitales,Profesor Zañartu 1190,INDEPENDENCIA,"Lunes a Viernes: 6:00 a 23:00 horas, Sábados: 6:30 a 23:00 horas, Domingos y festivos: 8:00 a 22:30 horas.",-70.654991,-33.417759,Metro,"Venta de tarjeta, Carga de tarjeta, Consulta de saldo, Activacion de carga remota"
62,L3,Metro Puente Cal Y Canto L3,General Mackenna 1010,SANTIAGO,"Lunes a Viernes: 6:00 a 23:00 horas, Sábados: 6:30 a 23:00 horas, Domingos y festivos: 8:00 a 22:30 horas.",-70.652199,-33.433224,Metro,"Venta de tarjeta, Carga de tarjeta, Consulta de saldo, Activacion de carga remota"
63,L3,Metro Plaza De Armas L3,Bandera 530,SANTIAGO,"Lunes a Viernes: 6:00 a 23:00 horas, Sábados: 6:30 a 23:00 horas, Domingos y festivos: 8:00 a 22:30 horas.",-70.652901,-33.437069,Metro,"Venta de tarjeta, Carga de tarjeta, Consulta de saldo, Activacion de carga remota"
64,L3,Metro Universidad De Chile L3,Av. Libertador Bernardo O Higgins 1020,SANTIAGO,"Lunes a Viernes: 6:00 a 23:00 horas, Sábados: 6:30 a 23:00 horas, Domingos y festivos: 8:00 a 22:30 horas.",-70.650337,-33.444057,Metro,"Venta de tarjeta, Carga de tarjeta, Consulta de saldo, Activacion de carga remota"
65,L3,Metro Parque Almagro,Av. Santa Isabel 1110,SANTIAGO,"Lunes a Viernes: 6:00 a 23:00 horas, Sábados: 6:30 a 23:00 horas, Domingos y festivos: 8:00 a 22:30 horas.",-70.650826,-33.452122,Metro,"Venta de tarjeta, Carga de tarjeta, Consulta de saldo, Activacion de carga remota"
66,L3,Metro Matta,Santa Rosa 1088,SANTIAGO,"Lunes a Viernes: 6:00 a 23:00 horas, Sábados: 6:30 a 23:00 horas, Domingos y festivos: 8:00 a 22:30 horas.",-70.643097,-33.458027,Metro,"Venta de tarjeta, Carga de tarjeta, Consulta de saldo, Activacion de carga remota"
67,L3,Metro Irarrazaval L3,Matta Oriente 240,ÑUÑOA,"Lunes a Viernes: 6:00 a 23:00 horas, Sábados: 6:30 a 23:00 horas, Domingos y festivos: 8:00 a 22:30 horas.",-70.627304,-33.454613,Metro,"Venta de tarjeta, Carga de tarjeta, Consulta de saldo, Activacion de carga remota"
68,L3,Metro Monseñor Eyzaguirre,Monseñor Eyzaguirre 39,ÑUÑOA,"Lunes a Viernes: 6:00 a 23:00 horas, Sábados: 6:30 a 23:00 horas, Domingos y festivos: 8:00 a 22:30 horas.",-70.613777,-33.453438,Metro,"Venta de tarjeta, Carga de tarjeta, Consulta de saldo, Activacion de carga remota"
69,L3,Metro Ñuñoa L3,Irarrazaval 2461,ÑUÑOA,"Lunes a Viernes: 6:00 a 23:00 horas, Sábados: 6:30 a 23:00 horas, Domingos y festivos: 8:00 a 22:30 horas.",-70.605476,-33.454666,Metro,"Venta de tarjeta, Carga de tarjeta, Consulta de saldo, Activacion de carga remota"
70,L3,Metro Chile-España,Irarrazaval 3227,ÑUÑOA,"Lunes a Viernes: 6:00 a 23:00 horas, Sábados: 6:30 a 23:00 horas, Domingos y festivos: 8:00 a 22:30 horas.",-70.597328,-33.455170,Metro,"Venta de tarjeta, Carga de tarjeta, Consulta de saldo, Activacion de carga remota"
71,L3,Metro Villa Frei,Irarrazaval 4675,ÑUÑOA,"Lunes a Viernes: 6:00 a 23:00 horas, Sábados: 6:30 a 23:00 horas, Domingos y festivos: 8:00 a 22:30 horas.",-70.581100,-33.454807,Metro,"Venta de tarjeta, Carga de tarjeta, Consulta de saldo, Activacion de carga remota"
72,L3,Metro Plaza Egaña L3,Irarrazaval 5738,ÑUÑOA,"Lunes a Viernes: 6:00 a 23:00 horas, Sábados: 6:30 a 23:00 horas, Domingos y festivos: 8:00 a 22:30 horas.",-70.571404,-33.452240,Metro,"Venta de tarjeta, Carga de tarjeta, Consulta de saldo, Activacion de carga remota"
73,L3,Metro Fernando Castillo Velasco,Av. Alcalde Fernando Castillo Velasco 6831,LA REINA,"Lunes a Viernes: 6:00 a 23:00 horas, Sábados: 6:30 a 23:00 horas, Domingos y festivos: 8:00 a 22:30 horas.",-70.558006,-33.452484,Metro,"Venta de tarjeta, Carga de tarjeta, Consulta de saldo, Activacion de carga remota"
74,L4,Metro Tobalaba L4,Av. Tobalaba 117,PROVIDENCIA,"Lunes a Viernes: 6:00 a 23:00 horas, Sábados: 6:30 a 23:00 horas, Domingos y festivos: 8:00 a 22:30 horas.",-70.600754,-33.419029,Metro,"Venta de tarjeta, Carga de tarjeta, Consulta de saldo, Activacion de carga remota"
75,L4,Metro Cristobal Colon,Eliodoro Yañez 2987,PROVIDENCIA,"Lunes a Viernes: 6:00 a 23:00 horas, Sábados: 6:30 a 23:00 horas, Domingos y festivos: 8:00 a 22:30 horas.",-70.591286,-33.426609,Metro,"Venta de tarjeta, Carga de tarjeta, Consulta de saldo, Activacion de carga remota"
76,L4,Metro Francisco Bilbao,Francisco Bilbao 3785,PROVIDENCIA,"Lunes a Viernes: 6:00 a 23:00 horas, Sábados: 6:30 a 23:00 horas, Domingos y festivos: 8:00 a 22:30 horas.",-70.584976,-33.432323,Metro,"Venta de tarjeta, Carga de tarjeta, Consulta de saldo, Activacion de carga remota"
77,L4,Metro Principe De Gales,Av. Americo Vespucio 1660,ÑUÑOA,"Lunes a Viernes: 6:00 a 23:00 horas, Sábados: 6:30 a 23:00 horas, Domingos y festivos: 8:00 a 22:30 horas.",-70.576256,-33.470551,Metro,"Venta de tarjeta, Carga de tarjeta, Consulta de saldo, Activacion de carga remota"
78,L4,Metro Simon Bolivar,Av. Americo Vespucio 760,ÑUÑOA,"Lunes a Viernes: 6:00 a 23:00 horas, Sábados: 6:30 a 23:00 horas, Domingos y festivos: 8:00 a 22:30 horas.",-70.573402,-33.461056,Metro,"Venta de tarjeta, Carga de tarjeta, Consulta de saldo, Activacion de carga remota"
79,L4,Metro Plaza Egaña L4,Av. Américo Vespucio 30,ÑUÑOA,"Lunes a Viernes: 6:00 a 23:00 horas, Sábados: 6:30 a 23:00 horas, Domingos y festivos: 8:00 a 22:30 horas.",-70.571068,-33.453831,Metro,"Venta de tarjeta, Carga de tarjeta, Consulta de saldo, Activacion de carga remota"
80,L4,Metro Los Orientales,Av. Americo Vespucio 825,ÑUÑOA,"Lunes a Viernes: 6:00 a 23:00 horas, Sábados: 6:30 a 23:00 horas, Domingos y festivos: 8:00 a 22:30 horas.",-70.574249,-33.462433,Metro,"Venta de tarjeta, Carga de tarjeta, Consulta de saldo, Activacion de carga remota"
81,L4,Metro Grecia,Av. Grecia 5280,ÑUÑOA,"Lunes a Viernes: 6:00 a 23:00 horas, Sábados: 6:30 a 23:00 horas, Domingos y festivos: 8:00 a 22:30 horas.",-70.577934,-33.468388,Metro,"Venta de tarjeta, Carga de tarjeta, Consulta de saldo, Activacion de carga remota"
82,L4,Metro Los Presidentes,Av. Americo Vespucio  2469,MACUL,"Lunes a Viernes: 6:00 a 23:00 horas, Sábados: 6:30 a 23:00 horas, Domingos y festivos: 8:00 a 22:30 horas.",-70.578880,-33.479141,Metro,"Venta de tarjeta, Carga de tarjeta, Consulta de saldo, Activacion de carga remota"
83,L4,Metro Quilin,Av. Americo Vespucio 3411,MACUL,"Lunes a Viernes: 6:00 a 23:00 horas, Sábados: 6:30 a 23:00 horas, Domingos y festivos: 8:00 a 22:30 horas.",-70.579865,-33.487705,Metro,"Venta de tarjeta, Carga de tarjeta, Consulta de saldo, Activacion de carga remota"
84,L4,Metro Las Torres,Av. Américo Vespucio 5001,MACUL,"Lunes a Viernes: 6:00 a 23:00 horas, Sábados: 6:30 a 23:00 horas, Domingos y festivos: 8:00 a 22:30 horas.",-70.588493,-33.502357,Metro,"Venta de tarjeta, Carga de tarjeta, Consulta de saldo, Activacion de carga remota"
85,L4,Metro Macul,Av. Macul 6309,MACUL,"Lunes a Viernes: 6:00 a 23:00 horas, Sábados: 6:30 a 23:00 horas, Domingos y festivos: 8:00 a 22:30 horas.",-70.590515,-33.507252,Metro,"Venta de tarjeta, Carga de tarjeta, Consulta de saldo, Activacion de carga remota"
86,L4,Metro Vicuña Mackenna L4,Av. Américo Vespucio Frente Al 7340,LA FLORIDA,"Lunes a Viernes: 6:00 a 23:00 horas, Sábados: 6:30 a 23:00 horas, Domingos y festivos: 8:00 a 22:30 horas.",-70.597054,-33.519871,Metro,"Venta de tarjeta, Carga de tarjeta, Consulta de saldo, Activacion de carga remota"
87,L4,Metro Vicente Valdes L4,Av. Vicuña Mackenna 7897,LA FLORIDA,"Lunes a Viernes: 6:00 a 23:00 horas, Sábados: 6:30 a 23:00 horas, Domingos y festivos: 8:00 a 22:30 horas.",-70.596977,-33.526833,Metro,"Venta de tarjeta, Carga de tarjeta, Consulta de saldo, Activacion de carga remota"
88,L4,Metro Rojas Magallanes,Av. Vicuña Mackenna Frente Al 8825,LA FLORIDA,"Lunes a Viernes: 6:00 a 23:00 horas, Sábados: 6:30 a 23:00 horas, Domingos y festivos: 8:00 a 22:30 horas.",-70.591820,-33.538105,Metro,"Venta de tarjeta, Carga de tarjeta, Consulta de saldo, Activacion de carga remota"
89,L4,Metro Trinidad,Av. Vicuña Mackenna Frente Al 9779,LA FLORIDA,"Lunes a Viernes: 6:00 a 23:00 horas, Sábados: 6:30 a 23:00 horas, Domingos y festivos: 8:00 a 22:30 horas.",-70.588020,-33.545563,Metro,"Venta de tarjeta, Carga de tarjeta, Consulta de saldo, Activacion de carga remota"
90,L4,Metro San Jose De La Estrella,Av. Vicuña Mackenna Frente Al 10422,LA FLORIDA,"Lunes a Viernes: 6:00 a 23:00 horas, Sábados: 6:30 a 23:00 horas, Domingos y festivos: 8:00 a 22:30 horas.",-70.586411,-33.552334,Metro,"Venta de tarjeta, Carga de tarjeta, Consulta de saldo, Activacion de carga remota"
91,L4,Metro Los Quillayes,Av. Vicuña Mackenna Frente Al 11145,LA FLORIDA,"Lunes a Viernes: 6:00 a 23:00 horas, Sábados: 6:30 a 23:00 horas, Domingos y festivos: 8:00 a 22:30 horas.",-70.585289,-33.561752,Metro,"Venta de tarjeta, Carga de tarjeta, Consulta de saldo, Activacion de carga remota"
92,L4,Metro Elisa Correa,Av. Concha Y Toro 3999,PUENTE ALTO,"Lunes a Viernes: 6:00 a 23:00 horas, Sábados: 6:30 a 23:00 horas, Domingos y festivos: 8:00 a 22:30 horas.",-70.583466,-33.569027,Metro,"Venta de tarjeta, Carga de tarjeta, Consulta de saldo, Activacion de carga remota"
93,L4,Metro Hospital Sotero Del Rio,Av. Concha Y Toro 3458,PUENTE ALTO,"Lunes a Viernes: 6:00 a 23:00 horas, Sábados: 6:30 a 23:00 horas, Domingos y festivos: 8:00 a 22:30 horas.",-70.582214,-33.576679,Metro,"Venta de tarjeta, Carga de tarjeta, Consulta de saldo, Activacion de carga remota"
94,L4,Metro Protectora De La Infancia,Av. Concha Y Toro 2410,PUENTE ALTO,"Lunes a Viernes: 6:00 a 23:00 horas, Sábados: 6:30 a 23:00 horas, Domingos y festivos: 8:00 a 22:30 horas.",-70.580391,-33.588634,Metro,"Venta de tarjeta, Carga de tarjeta, Consulta de saldo, Activacion de carga remota"
95,L4,Metro Las Mercedes,Av. Concha Y Toro 1099,PUENTE ALTO,"Lunes a Viernes: 6:00 a 23:00 horas, Sábados: 6:30 a 23:00 horas, Domingos y festivos: 8:00 a 22:30 horas.",-70.577782,-33.599468,Metro,"Venta de tarjeta, Carga de tarjeta, Consulta de saldo, Activacion de carga remota"
96,L4,Metro Plaza De Puente Alto,Av. Concha Y Toro 265,PUENTE ALTO,"Lunes a Viernes: 6:00 a 23:00 horas, Sábados: 6:30 a 23:00 horas, Domingos y festivos: 8:00 a 22:30 horas.",-70.576118,-33.609119,Metro,"Venta de tarjeta, Carga de tarjeta, Consulta de saldo, Activacion de carga remota"
97,L4A,Metro Vicuña Mackenna L4A,Av. Américo Vespucio Frente Al 7340,LA FLORIDA,"Lunes a Viernes: 6:00 a 23:00 horas, Sábados: 6:30 a 23:00 horas, Domingos y festivos: 8:00 a 22:30 horas.",-70.597054,-33.519871,Metro,"Venta de tarjeta, Carga de tarjeta, Consulta de saldo, Activacion de carga remota"
98,L4A,Metro Santa Julia,Av. Americo Vespucio Frente Al 8320,LA FLORIDA,"Lunes a Viernes: 6:00 a 23:00 horas, Sábados: 6:30 a 23:00 horas, Domingos y festivos: 8:00 a 22:30 horas.",-70.605286,-33.531521,Metro,"Venta de tarjeta, Carga de tarjeta, Consulta de saldo, Activacion de carga remota"
99,L4A,Metro La Granja,Av. Américo Vespucio 0741-E,LA GRANJA,"Lunes a Viernes: 6:00 a 23:00 horas, Sábados: 6:30 a 23:00 horas, Domingos y festivos: 8:00 a 22:30 horas.",-70.612518,-33.540749,Metro,"Venta de tarjeta, Carga de tarjeta, Consulta de saldo, Activacion de carga remota"
100,L4A,Metro Santa Rosa,Av. Santa Rosa 8914,LA GRANJA,"Lunes a Viernes: 6:00 a 23:00 horas, Sábados: 6:30 a 23:00 horas, Domingos y festivos: 8:00 a 22:30 horas.",-70.634041,-33.542164,Metro,"Venta de tarjeta, Carga de tarjeta, Consulta de saldo, Activacion de carga remota"
101,L4A,Metro San Ramon,Av. Americo Vespucio 1775,SAN RAMON,"Lunes a Viernes: 6:00 a 23:00 horas, Sábados: 6:30 a 23:00 horas, Domingos y festivos: 8:00 a 22:30 horas.",-70.643288,-33.540852,Metro,"Venta de tarjeta, Carga de tarjeta, Consulta de saldo, Activacion de carga remota"
102,L4A,Metro La Cisterna L4A,Gran Avenida José Miguel Carrera 8870,LA CISTERNA,"Lunes a Viernes: 6:00 a 23:00 horas, Sábados: 6:30 a 23:00 horas, Domingos y festivos: 8:00 a 22:30 horas.",-70.664406,-33.537651,Metro,"Venta de tarjeta, Carga de tarjeta, Consulta de saldo, Activacion de carga remota"
103,L5,Metro Plaza De Maipu,Av. Pajaritos 1921,MAIPU,"Lunes a Viernes: 6:00 a 23:00 horas, Sábados: 6:30 a 23:00 horas, Domingos y festivos: 8:00 a 22:30 horas.",-70.757530,-33.509056,Metro,"Venta de tarjeta, Carga de tarjeta, Consulta de saldo, Activacion de carga remota"
104,L5,Metro Santiago Bueras,Av. Pajaritos 3321,MAIPU,"Lunes a Viernes: 6:00 a 23:00 horas, Sábados: 6:30 a 23:00 horas, Domingos y festivos: 8:00 a 22:30 horas.",-70.757332,-33.497204,Metro,"Venta de tarjeta, Carga de tarjeta, Consulta de saldo, Activacion de carga remota"
105,L5,Metro Del Sol,Av. Pajaritos 3801,MAIPU,"Lunes a Viernes: 6:00 a 23:00 horas, Sábados: 6:30 a 23:00 horas, Domingos y festivos: 8:00 a 22:30 horas.",-70.736565,-33.471561,Metro,"Venta de tarjeta, Carga de tarjeta, Consulta de saldo, Activacion de carga remota"
106,L5,Metro Monte Tabor,Av. Pajaritos 4460,MAIPU,"Lunes a Viernes: 6:00 a 23:00 horas, Sábados: 6:30 a 23:00 horas, Domingos y festivos: 8:00 a 22:30 horas.",-70.745621,-33.481815,Metro,"Venta de tarjeta, Carga de tarjeta, Consulta de saldo, Activacion de carga remota"
107,L5,Metro Las Parcelas,Av. Pajaritos 5090,MAIPU,"Lunes a Viernes: 6:00 a 23:00 horas, Sábados: 6:30 a 23:00 horas, Domingos y festivos: 8:00 a 22:30 horas.",-70.740013,-33.474556,Metro,"Venta de tarjeta, Carga de tarjeta, Consulta de saldo, Activacion de carga remota"
108,L5,Metro Laguna Sur,Av. Laguna Sur 7297,PUDAHUEL,"Lunes a Viernes: 6:00 a 23:00 horas, Sábados: 6:30 a 23:00 horas, Domingos y festivos: 8:00 a 22:30 horas.",-70.739594,-33.462315,Metro,"Venta de tarjeta, Carga de tarjeta, Consulta de saldo, Activacion de carga remota"
109,L5,Metro Barrancas,Av. Gral. Bonilla 8220,PUDAHUEL,"Lunes a Viernes: 6:00 a 23:00 horas, Sábados: 6:30 a 23:00 horas, Domingos y festivos: 8:00 a 22:30 horas.",-70.740860,-33.452045,Metro,"Venta de tarjeta, Carga de tarjeta, Consulta de saldo, Activacion de carga remota"
110,L5,Metro Pudahuel,Av. Teniente Cruz 800,PUDAHUEL,"Lunes a Viernes: 6:00 a 23:00 horas, Sábados: 6:30 a 23:00 horas, Domingos y festivos: 8:00 a 22:30 horas.",-70.741173,-33.445488,Metro,"Venta de tarjeta, Carga de tarjeta, Consulta de saldo, Activacion de carga remota"
111,L5,Metro San Pablo L5,Av. San Pablo 6190,LO PRADO,"Lunes a Viernes: 6:00 a 23:00 horas, Sábados: 6:30 a 23:00 horas, Domingos y festivos: 8:00 a 22:30 horas.",-70.723068,-33.444355,Metro,"Venta de tarjeta, Carga de tarjeta, Consulta de saldo, Activacion de carga remota"
112,L5,Metro Lo Prado,Av. San Pablo 5885,LO PRADO,"Lunes a Viernes: 6:00 a 23:00 horas, Sábados: 6:30 a 23:00 horas, Domingos y festivos: 8:00 a 22:30 horas.",-70.716850,-33.443295,Metro,"Venta de tarjeta, Carga de tarjeta, Consulta de saldo, Activacion de carga remota"
113,L5,Metro Blanqueado,Av. San Pablo 5199,QUINTA NORMAL,"Lunes a Viernes: 6:00 a 23:00 horas, Sábados: 6:30 a 23:00 horas, Domingos y festivos: 8:00 a 22:30 horas.",-70.706749,-33.441219,Metro,"Venta de tarjeta, Carga de tarjeta, Consulta de saldo, Activacion de carga remota"
114,L5,Metro Gruta De Lourdes,Av. San Pablo 4098,QUINTA NORMAL,"Lunes a Viernes: 6:00 a 23:00 horas, Sábados: 6:30 a 23:00 horas, Domingos y festivos: 8:00 a 22:30 horas.",-70.691414,-33.438477,Metro,"Venta de tarjeta, Carga de tarjeta, Consulta de saldo, Activacion de carga remota"
115,L5,Metro Quinta Normal,Catedral 3336,SANTIAGO,"Lunes a Viernes: 6:00 a 23:00 horas, Sábados: 6:30 a 23:00 horas, Domingos y festivos: 8:00 a 22:30 horas.",-70.668533,-33.439152,Metro,"Venta de tarjeta, Carga de tarjeta, Consulta de saldo, Activacion de carga remota"
116,L5,Metro Cumming,Av. Ricardo Cumming 502,SANTIAGO,"Lunes a Viernes: 6:00 a 23:00 horas, Sábados: 6:30 a 23:00 horas, Domingos y festivos: 8:00 a 22:30 horas.",-70.667618,-33.447067,Metro,"Venta de tarjeta, Carga de tarjeta, Consulta de saldo, Activacion de carga remota"
117,L5,Metro Santa Ana L5,Catedral 1512,SANTIAGO,"Lunes a Viernes: 6:00 a 23:00 horas, Sábados: 6:30 a 23:00 horas, Domingos y festivos: 8:00 a 22:30 horas.",-70.658386,-33.438259,Metro,"Venta de tarjeta, Carga de tarjeta, Consulta de saldo, Activacion de carga remota"
118,L5,Metro Plaza De Armas L5,21 De Mayo 543,SANTIAGO,"Lunes a Viernes: 6:00 a 23:00 horas, Sábados: 6:30 a 23:00 horas, Domingos y festivos: 8:00 a 22:30 horas.",-70.666008,-33.201782,Metro,"Venta de tarjeta, Carga de tarjeta, Consulta de saldo, Activacion de carga remota"
119,L5,Metro Bellas Artes,Mosqueto 515,SANTIAGO,"Lunes a Viernes: 6:00 a 23:00 horas, Sábados: 6:30 a 23:00 horas, Domingos y festivos: 8:00 a 22:30 horas.",-70.644226,-33.436394,Metro,"Venta de tarjeta, Carga de tarjeta, Consulta de saldo, Activacion de carga remota"
120,L5,Metro Baquedano L5,Av. Providencia 011,PROVIDENCIA,"Lunes a Viernes: 6:00 a 23:00 horas, Sábados: 6:30 a 23:00 horas, Domingos y festivos: 8:00 a 22:30 horas.",-70.634651,-33.437386,Metro,"Venta de tarjeta, Carga de tarjeta, Consulta de saldo, Activacion de carga remota"
121,L5,Metro Parque Bustamante,Francisco Bilbao 084,PROVIDENCIA,"Lunes a Viernes: 6:00 a 23:00 horas, Sábados: 6:30 a 23:00 horas, Domingos y festivos: 8:00 a 22:30 horas.",-70.630402,-33.442501,Metro,"Venta de tarjeta, Carga de tarjeta, Consulta de saldo, Activacion de carga remota"
122,L5,Metro Santa Isabel,Santa Isabel N°088,PROVIDENCIA,"Lunes a Viernes: 6:00 a 23:00 horas, Sábados: 6:30 a 23:00 horas, Domingos y festivos: 8:00 a 22:30 horas.",-70.633423,-33.447853,Metro,"Venta de tarjeta, Carga de tarjeta, Consulta de saldo, Activacion de carga remota"
123,L5,Metro Irarrazaval L5,Av. Irarrazaval 351,ÑUÑOA,"Lunes a Viernes: 6:00 a 23:00 horas, Sábados: 6:30 a 23:00 horas, Domingos y festivos: 8:00 a 22:30 horas.",-70.627113,-33.452541,Metro,"Venta de tarjeta, Carga de tarjeta, Consulta de saldo, Activacion de carga remota"
124,L5,Metro Ñuble L5,Carlos Dittborn 300,ÑUÑOA,"Lunes a Viernes: 6:00 a 23:00 horas, Sábados: 6:30 a 23:00 horas, Domingos y festivos: 8:00 a 22:30 horas.",-70.617157,-33.465889,Metro,"Venta de tarjeta, Carga de tarjeta, Consulta de saldo, Activacion de carga remota"
125,L5,Metro Rodrigo De Araya,Av. Vicuña Mackenna 2601,MACUL,"Lunes a Viernes: 6:00 a 23:00 horas, Sábados: 6:30 a 23:00 horas, Domingos y festivos: 8:00 a 22:30 horas.",-70.623055,-33.475590,Metro,"Venta de tarjeta, Carga de tarjeta, Consulta de saldo, Activacion de carga remota"
126,L5,Metro Carlos Valdovinos,Av. Vicuña Mackenna 3745,MACUL,"Lunes a Viernes: 6:00 a 23:00 horas, Sábados: 6:30 a 23:00 horas, Domingos y festivos: 8:00 a 22:30 horas.",-70.620247,-33.485790,Metro,"Venta de tarjeta, Carga de tarjeta, Consulta de saldo, Activacion de carga remota"
127,L5,Metro Camino Agricola,Av. Vicuña Mackenna 3953,MACUL,"Lunes a Viernes: 6:00 a 23:00 horas, Sábados: 6:30 a 23:00 horas, Domingos y festivos: 8:00 a 22:30 horas.",-70.618362,-33.488937,Metro,"Venta de tarjeta, Carga de tarjeta, Consulta de saldo, Activacion de carga remota"
128,L5,Metro San Joaquin,Av. Vicuña Mackenna 4861,MACUL,"Lunes a Viernes: 6:00 a 23:00 horas, Sábados: 6:30 a 23:00 horas, Domingos y festivos: 8:00 a 22:30 horas.",-70.616028,-33.499359,Metro,"Venta de tarjeta, Carga de tarjeta, Consulta de saldo, Activacion de carga remota"
129,L5,Metro Pedrero,Av. Departamental 1901,MACUL,"Lunes a Viernes: 6:00 a 23:00 horas, Sábados: 6:30 a 23:00 horas, Domingos y festivos: 8:00 a 22:30 horas.",-70.613831,-33.508198,Metro,"Venta de tarjeta, Carga de tarjeta, Consulta de saldo, Activacion de carga remota"
130,L5,Metro Mirador,Av. Vicuña Mackenna Frente A 6420,LA FLORIDA,"Lunes a Viernes: 6:00 a 23:00 horas, Sábados: 6:30 a 23:00 horas, Domingos y festivos: 8:00 a 22:30 horas.",-70.605118,-33.513519,Metro,"Venta de tarjeta, Carga de tarjeta, Consulta de saldo, Activacion de carga remota"
131,L5,Metro Bellavista De La Florida,Av. Vicuña Mackenna Costado De 165,LA FLORIDA,"Lunes a Viernes: 6:00 a 23:00 horas, Sábados: 6:30 a 23:00 horas, Domingos y festivos: 8:00 a 22:30 horas.",-70.597610,-33.524281,Metro,"Venta de tarjeta, Carga de tarjeta, Consulta de saldo, Activacion de carga remota"
132,L5,Metro Vicente Valdes L5,Av. Vicuña Mackenna 7897,LA FLORIDA,"Lunes a Viernes: 6:00 a 23:00 horas, Sábados: 6:30 a 23:00 horas, Domingos y festivos: 8:00 a 22:30 horas.",-70.596977,-33.526833,Metro,"Venta de tarjeta, Carga de tarjeta, Consulta de saldo, Activacion de carga remota"
133,L6,Metro Cerrillos,Martín De Solier 4598,CERRILLOS,"Lunes a Viernes: 6:00 a 23:00 horas, Sábados: 6:30 a 23:00 horas, Domingos y festivos: 8:00 a 22:30 horas.",-70.693596,-33.483799,Metro,"Venta de tarjeta, Carga de tarjeta, Consulta de saldo, Activacion de carga remota"
134,L6,Metro Lo Valledor,Av. Carlos Valdovinos 3346,PEDRO AGUIRRE CERDA,"Lunes a Viernes: 6:00 a 23:00 horas, Sábados: 6:30 a 23:00 horas, Domingos y festivos: 8:00 a 22:30 horas.",-70.680138,-33.479084,Metro,"Venta de tarjeta, Carga de tarjeta, Consulta de saldo, Activacion de carga remota"
135,L6,Metro Pedro Aguirre Cerda,Av. Carlos Valdovinos 2223,PEDRO AGUIRRE CERDA,"Lunes a Viernes: 6:00 a 23:00 horas, Sábados: 6:30 a 23:00 horas, Domingos y festivos: 8:00 a 22:30 horas.",-70.665001,-33.478470,Metro,"Venta de tarjeta, Carga de tarjeta, Consulta de saldo, Activacion de carga remota"
136,L6,Metro Franklin L6,Nataniel Cox 2370,SANTIAGO,"Lunes a Viernes: 6:00 a 23:00 horas, Sábados: 6:30 a 23:00 horas, Domingos y festivos: 8:00 a 22:30 horas.",-70.649277,-33.476250,Metro,"Venta de tarjeta, Carga de tarjeta, Consulta de saldo, Activacion de carga remota"
137,L6,Metro Bio Bio,Av. Santa Rosa 2374,SAN JOAQUIN,"Lunes a Viernes: 6:00 a 23:00 horas, Sábados: 6:30 a 23:00 horas, Domingos y festivos: 8:00 a 22:30 horas.",-70.641800,-33.476051,Metro,"Venta de tarjeta, Carga de tarjeta, Consulta de saldo, Activacion de carga remota"
138,L6,Metro Ñuble L6,Carlos Dittborn 733,ÑUÑOA,"Lunes a Viernes: 6:00 a 23:00 horas, Sábados: 6:30 a 23:00 horas, Domingos y festivos: 8:00 a 22:30 horas.",-70.624168,-33.467400,Metro,"Venta de tarjeta, Carga de tarjeta, Consulta de saldo, Activacion de carga remota"
139,L6,Metro Estadio Nacional,Av. Grecia 2298,ÑUÑOA,"Lunes a Viernes: 6:00 a 23:00 horas, Sábados: 6:30 a 23:00 horas, Domingos y festivos: 8:00 a 22:30 horas.",-70.607193,-33.461983,Metro,"Venta de tarjeta, Carga de tarjeta, Consulta de saldo, Activacion de carga remota"
140,L6,Metro Ñuñoa L6,Av. Irarrázaval 2461,ÑUÑOA,"Lunes a Viernes: 6:00 a 23:00 horas, Sábados: 6:30 a 23:00 horas, Domingos y festivos: 8:00 a 22:30 horas.",-70.605476,-33.454666,Metro,"Venta de tarjeta, Carga de tarjeta, Consulta de saldo, Activacion de carga remota"
141,L6,Metro Ines De Suarez,Av. Pedro De Valdivia 1664,PROVIDENCIA,"Lunes a Viernes: 6:00 a 23:00 horas, Sábados: 6:30 a 23:00 horas, Domingos y festivos: 8:00 a 22:30 horas.",-70.607185,-33.438000,Metro,"Venta de tarjeta, Carga de tarjeta, Consulta de saldo, Activacion de carga remota"
142,L6,Metro Los Leones L6,Las Bellotas 200,PROVIDENCIA,"Lunes a Viernes: 6:00 a 23:00 horas, Sábados: 6:30 a 23:00 horas, Domingos y festivos: 8:00 a 22:30 horas.",-70.607971,-33.422237,Metro,"Venta de tarjeta, Carga de tarjeta, Consulta de saldo, Activacion de carga remota"
0,52,Fullcarga,Av. Independencia 3187 B,CONCHALI,Lun a Sab 08:00 a 21:00 Dom y Festivos 09:00 a 14:00,-70.669021,-33.397985,Centro Bip!,"Venta de tarjeta, Carga de tarjeta, Consulta de saldo, Activacion de carga remota"
1,57,Fullcarga,Mapocho 4190,QUINTA NORMAL,Lun a Sab 08:00 a 21:00 Dom y Festivos 09:00 a 14:00,-70.691895,-33.431889,Centro Bip!,"Venta de tarjeta, Carga de tarjeta, Consulta de saldo, Activacion de carga remota"
2,62,Fullcarga,Parque Central Poniente 1075,MAIPU,Lun a Sab 08:00 a 21:00 Dom y Festivos 09:00 a 14:00,-70.787010,-33.561005,Centro Bip!,"Venta de tarjeta, Carga de tarjeta, Consulta de saldo, Activacion de carga remota"
3,63,Fullcarga,Av. Grecia 8585,PEÑALOLEN,Lun a Sab 08:30 a 21:00 Dom y Festivos 09:00 a 14:00,-70.544136,-33.476723,Centro Bip!,"Venta de tarjeta, Carga de tarjeta, Consulta de saldo, Activacion de carga remota"
4,65,Fullcarga,Estado 383,SANTIAGO,Lun a Sab 08:00 a 21:00 Dom y Festivos 09:00 a 14:00,-70.649521,-33.438568,Centro Bip!,"Venta de tarjeta, Carga de tarjeta, Consulta de saldo, Activacion de carga remota"
5,69,Fullcarga,Bernardo O Higgins 309,QUILICURA,Lun a Sab 08:00 a 21:00 Dom y Festivos 09:00 a 14:00,-70.729274,-33.356530,Centro Bip!,"Venta de tarjeta, Carga de tarjeta, Consulta de saldo, Activacion de carga remota"
6,72,Fullcarga,Av. Walker Martinez 1786 8A,LA FLORIDA,Lun a Sab 08:00 a 21:00 Dom y Festivos 09:00 a 14:00,-70.579819,-33.521778,Centro Bip!,"Venta de tarjeta, Carga de tarjeta, Consulta de saldo, Activacion de carga remota"
7,73,Fullcarga,Av. Santa Rosa 8035 A,SAN RAMON,Lun a Sab 08:00 a 21:00 Dom y Festivos 09:00 a 14:00,-70.635071,-33.533241,Centro Bip!,"Venta de tarjeta, Carga de tarjeta, Consulta de saldo, Activacion de carga remota"
8,75,Fullcarga,Av. Central 6577,LO ESPEJO,Lun a Sab 08:00 a 21:00 Dom y Festivos 09:00 a 14:00,-70.691878,-33.505539,Centro Bip!,"Venta de tarjeta, Carga de tarjeta, Consulta de saldo, Activacion de carga remota"
9,80,Fullcarga,Av. Zapadores 0216,RECOLETA,Lun a Sab 08:00 a 21:00 Dom y Festivos 09:00 a 14:00,-70.628166,-33.396126,Centro Bip!,"Venta de tarjeta, Carga de tarjeta, Consulta de saldo, Activacion de carga remota"
10,81,Fullcarga,Av. Providencia 2382,PROVIDENCIA,Lun a Sab 08:00 a 21:00 Dom y Festivos 09:00 a 14:00,-70.606323,-33.419662,Centro Bip!,"Venta de tarjeta, Carga de tarjeta, Consulta de saldo, Activacion de carga remota"
11,84,Fullcarga,Av. Santa Raquel 9685,LA FLORIDA,Lun a Sab 08:00 a 21:00 Dom y Festivos 09:00 a 14:00,-70.603798,-33.543312,Centro Bip!,"Venta de tarjeta, Carga de tarjeta, Consulta de saldo, Activacion de carga remota"
12,86,Fullcarga,Nonato Coo 3392,PUENTE ALTO,Lun a Sab 08:00 a 21:00 Dom y Festivos 09:00 a 14:00,-70.570412,-33.576515,Centro Bip!,"Venta de tarjeta, Carga de tarjeta, Consulta de saldo, Activacion de carga remota"
13,96,Fullcarga,Av. Los Toros 5441,PUENTE ALTO,Lun a Dom 09:00 a 22:00 Festivos 09:00 a 22:00,-70.557426,-33.567219,Centro Bip!,"Venta de tarjeta, Carga de tarjeta, Consulta de saldo, Activacion de carga remota"
14,99,Fullcarga,San Luis 18,QUILICURA,Lun a Sab 08:00 a 21:00 Dom y Festivos 09:00 a 14:00,-70.738235,-33.366653,Centro Bip!,"Venta de tarjeta, Carga de tarjeta, Consulta de saldo, Activacion de carga remota"
15,100,Fullcarga,El Champion 1401,MAIPU,Lun a Sab 08:00 a 21:00 Dom y Festivos 09:00 a 21:00,-70.775787,-33.508446,Centro Bip!,"Venta de tarjeta, Carga de tarjeta, Consulta de saldo, Activacion de carga remota"
16,102,Fullcarga,Alameda 3170,ESTACION CENTRAL,Lun a Vie 05:30 a 23:00 Sab 06:30 a 23:00 Dom y Festivos 08:00 a 23:00,-70.679611,-33.452133,Centro Bip!,"Venta de tarjeta, Carga de tarjeta, Consulta de saldo, Activacion de carga remota"
17,103,Fullcarga,Alameda 3171,ESTACION CENTRAL,Lun a Vie 05:30 a 23:00 Sab 06:30 a 23:00 Dom y Festivos 08:00 a 23:00,-70.679611,-33.452133,Centro Bip!,"Venta de tarjeta, Carga de tarjeta, Consulta de saldo, Activacion de carga remota"
18,104,Fullcarga,Maipu Entre 4501-4559,PEDRO AGUIRRE CERDA,Lun a Vie 06:00 a 23:00 Sab 07:00 a 23:00 Dom y Festivos 08:00 a 23:00,-70.681800,-33.493075,Centro Bip!,"Venta de tarjeta, Carga de tarjeta, Consulta de saldo, Activacion de carga remota"
19,105,Fullcarga,Lucila Godoy 2766 (Aprox),LO ESPEJO,Lun a Vie 06:00 a 23:00 Sab 07:00 a 23:00 Dom y Festivos 08:00 a 23:00,-70.685795,-33.514151,Centro Bip!,"Venta de tarjeta, Carga de tarjeta, Consulta de saldo, Activacion de carga remota"
20,106,Fullcarga,Lo Blanco 1766 (Aprox),SAN BERNARDO,Lun a Vie 06:00 a 23:00 Sab 07:00 a 23:00 Dom y Festivos 08:00 a 23:00,-70.698397,-33.573201,Centro Bip!,"Venta de tarjeta, Carga de tarjeta, Consulta de saldo, Activacion de carga remota"
21,107,Fullcarga,Jose Toribio Medina 9 (Aprox),SAN BERNARDO,Lun a Vie 06:00 a 23:00 Sab 07:00 a 23:00 Dom y Festivos 08:00 a 23:00,-70.698471,-33.586418,Centro Bip!,"Venta de tarjeta, Carga de tarjeta, Consulta de saldo, Activacion de carga remota"
22,108,Fullcarga,Baquedano 499 (Aprox),SAN BERNARDO,Lun a Vie 06:00 a 23:00 Sab 07:00 a 23:00 Dom y Festivos 08:00 a 23:00,-70.697878,-33.594486,Centro Bip!,"Venta de tarjeta, Carga de tarjeta, Consulta de saldo, Activacion de carga remota"
23,109,Fullcarga,Portales 1194,SAN BERNARDO,Lun a Vie 06:00 a 23:00 Sab 07:00 a 23:00 Dom y Festivos 08:00 a 23:00,-70.696979,-33.606847,Centro Bip!,"Venta de tarjeta, Carga de tarjeta, Consulta de saldo, Activacion de carga remota"
24,110,Fullcarga,Portales Entre 3105-3249,SAN BERNARDO,Lun a Vie 06:00 a 23:00 Sab 07:00 a 23:00 Dom y Festivos 08:00 a 23:00,-70.700781,-33.623645,Centro Bip!,"Venta de tarjeta, Carga de tarjeta, Consulta de saldo, Activacion de carga remota"
25,111,Fullcarga,Portales 1397 (Aprox),SAN BERNARDO,Lun a Vie 06:00 a 23:00 Sab 07:00 a 23:00 Dom y Festivos 08:00 a 23:00,-70.704796,-33.632758,Centro Bip!,"Venta de tarjeta, Carga de tarjeta, Consulta de saldo, Activacion de carga remota"
26,112,Fullcarga,Carlos Valdovinos 3101-3199,PEDRO AGUIRRE CERDA,Lun a Vie 06:00 a 23:00 Sab 07:00 a 23:00 Dom y Festivos 08:00 a 23:00,-70.678970,-33.478630,Centro Bip!,"Venta de tarjeta, Carga de tarjeta, Consulta de saldo, Activacion de carga remota"
27,114,Fullcarga,Av. Independencia 1060,INDEPENDENCIA,Lun a Sab 08:00 a 21:00 Dom y Festivos 09:00 a 14:00,-70.656464,-33.418327,Centro Bip!,"Venta de tarjeta, Carga de tarjeta, Consulta de saldo, Activacion de carga remota"
28,116,Fullcarga,Balmaceda 4168,RENCA,Lun a Sab 08:00 a 21:00 Dom y Festivos 09:00 a 14:00,-70.705963,-33.404114,Centro Bip!,"Venta de tarjeta, Carga de tarjeta, Consulta de saldo, Activacion de carga remota"
0,55,Fullcarga,San Francisco 1085 Local 14,SANTIAGO,Lun a Vie 07:00 a 22:00 Sab 08:00 a 22:00 Dom y Festivos 09:00 a 22:00,-70.645912,-33.458069,Centro Bip! Full,"Venta de tarjeta, Carga de tarjeta, Consulta de saldo, Activacion de carga remota, Reemplazo de tarjeta, Recuperacion de saldo de tarjetas corrompidas"
1,59,Fullcarga,Av. 5 De Abril 5101,ESTACION CENTRAL,Lun a Vie 07:00 a 22:00 Sab 08:00 a 22:00 Dom y Festivos 09:00 a 22:00,-70.705292,-33.464439,Centro Bip! Full,"Venta de tarjeta, Carga de tarjeta, Consulta de saldo, Activacion de carga remota, Reemplazo de tarjeta, Recuperacion de saldo de tarjetas corrompidas"
2,66,Fullcarga,Av. Independencia 2127,INDEPENDENCIA,Lun a Vie 07:00 a 22:00 Sab 08:00 a 22:00 Dom y Festivos 09:00 a 22:00,-70.660004,-33.406811,Centro Bip! Full,"Venta de tarjeta, Carga de tarjeta, Consulta de saldo, Activacion de carga remota, Reemplazo de tarjeta, Recuperacion de saldo de tarjetas corrompidas"
3,71,Fullcarga,Lo Errazuriz 7009,CERRILLOS,Lun a Vie 07:00 a 22:00 Sab 08:00 a 22:00 Dom y Festivos 09:00 a 22:00,-70.722565,-33.491795,Centro Bip! Full,"Venta de tarjeta, Carga de tarjeta, Consulta de saldo, Activacion de carga remota, Reemplazo de tarjeta, Recuperacion de saldo de tarjetas corrompidas"
4,95,Fullcarga,Av.Pedro De Valdivia 3399,ÑUÑOA,Lun a Vie 07:00 a 22:00 Sab 08:00 a 22:00 Dom y Festivos 09:00 a 22:00,-70.605095,-33.453846,Centro Bip! Full,"Venta de tarjeta, Carga de tarjeta, Consulta de saldo, Activacion de carga remota, Reemplazo de tarjeta, Recuperacion de saldo de tarjetas corrompidas"
5,98,Fullcarga,Alcalde Fernando Castillo Velasco Frente Al 8900,LA REINA,Lun a Vie 07:00 a 22:00 Sab 08:00 a 22:00 Dom y Festivos 09:00 a 22:00,-70.540421,-33.451317,Centro Bip! Full,"Venta de tarjeta, Carga de tarjeta, Consulta de saldo, Activacion de carga remota, Reemplazo de tarjeta, Recuperacion de saldo de tarjetas corrompidas"
6,113,Fullcarga,Av. Grecia 3228,ÑUÑOA,Lun a Vie 07:00 a 22:00 Sab 08:00 a 22:00 Dom y Festivos 09:00 a 22:00,-70.597580,-33.464523,Centro Bip! Full,"Venta de tarjeta, Carga de tarjeta, Consulta de saldo, Activacion de carga remota, Reemplazo de tarjeta, Recuperacion de saldo de tarjetas corrompidas"
0,1224,Marion,Los Duraznos 356 A,ESTACION CENTRAL,No hay informacion disponible,-70.710197,-33.466599,Punto Bip!,"Carga de tarjeta, Consulta de saldo, Activacion de carga remota"
1,3316,Nissy,Joaquin Edwards Bello 10999,LA PINTANA,No hay informacion disponible,-70.622688,-33.563601,Punto Bip!,"Carga de tarjeta, Consulta de saldo, Activacion de carga remota"
2,9878,Erichoper,Los Retamos 5615,HUECHURABA,No hay informacion disponible,-70.623108,-33.377819,Punto Bip!,"Carga de tarjeta, Consulta de saldo, Activacion de carga remota"
3,10347,Don Orlando,Arturo Prat 5725 Dpto 11,RENCA,No hay informacion disponible,-70.732925,-33.403622,Punto Bip!,"Carga de tarjeta, Consulta de saldo, Activacion de carga remota"
4,10489,Nolberto Valdes Navarro,Calle 462 5994,PEÐALOLEN,No hay informacion disponible,-70.568390,-33.501755,Punto Bip!,"Carga de tarjeta, Consulta de saldo, Activacion de carga remota"
5,10767,Bazar La Kuka,Av. Recoleta 4021,RECOLETA,No hay informacion disponible,-70.642052,-33.388390,Punto Bip!,"Carga de tarjeta, Consulta de saldo, Activacion de carga remota"
6,11267,Davicito,Los Platanos 1214,CERRO NAVIA,No hay informacion disponible,-70.732834,-33.433338,Punto Bip!,"Carga de tarjeta, Consulta de saldo, Activacion de carga remota"
7,11377,Elsa Rosa Reyes Yanez,El Pillan 10858,LA PINTANA,No hay informacion disponible,-70.617416,-33.560406,Punto Bip!,"Carga de tarjeta, Consulta de saldo, Activacion de carga remota"
8,12214,Atemis Computacion,Gabriela Poniente 519,PUENTE ALTO,No hay informacion disponible,-70.587624,-33.579838,Punto Bip!,"Carga de tarjeta, Consulta de saldo, Activacion de carga remota"
9,14629,Almacen Geruda,Acapulco 8197,LO ESPEJO,No hay informacion disponible,-70.680839,-33.523126,Punto Bip!,"Carga de tarjeta, Consulta de saldo, Activacion de carga remota"
10,18696,Ciber Javinet,Las Clarisas 0777,QUILICURA,No hay informacion disponible,-70.756462,-33.363354,Punto Bip!,"Carga de tarjeta, Consulta de saldo, Activacion de carga remota"
11,22058,Juana Huenun,Bartolome Diaz 563,SAN BERNARDO,No hay informacion disponible,-70.685493,-33.585205,Punto Bip!,"Carga de tarjeta, Consulta de saldo, Activacion de carga remota"
12,25744,Bazar Angeles,Manuel Antonio Matta 246,QUILICURA,No hay informacion disponible,-70.742256,-33.362232,Punto Bip!,"Carga de tarjeta, Consulta de saldo, Activacion de carga remota"
13,50119,Don Luis,Estacion Paillaco 396,PUENTE ALTO,No hay informacion disponible,-70.611954,-33.620892,Punto Bip!,"Carga de tarjeta, Consulta de saldo, Activacion de carga remota"
14,57920,Edgar Cosme Portal,San Pablo 5186,QUINTA NORMAL,No hay informacion disponible,-70.706879,-33.441692,Punto Bip!,"Carga de tarjeta, Consulta de saldo, Activacion de carga remota"
15,59324,Elena Minchan Ambrosio,Loma Larga 854,LAS CONDES,No hay informacion disponible,-70.536145,-33.413732,Punto Bip!,"Carga de tarjeta, Consulta de saldo, Activacion de carga remota"
16,61032,La Vale,Los Arce 12278,EL BOSQUE,No hay informacion disponible,-70.683777,-33.567753,Punto Bip!,"Carga de tarjeta, Consulta de saldo, Activacion de carga remota"
17,61067,Maria Teresa,Juan Luis Sanfuentes 8463,SAN RAMON,No hay informacion disponible,-70.645111,-33.537086,Punto Bip!,"Carga de tarjeta, Consulta de saldo, Activacion de carga remota"
18,62613,Oasis,Alberto Llona 1470,MAIPU,No hay informacion disponible,-70.755798,-33.513615,Punto Bip!,"Carga de tarjeta, Consulta de saldo, Activacion de carga remota"
19,63076,Loto,Balmaceda 347,PUENTE ALTO,No hay informacion disponible,-70.574692,-33.608509,Punto Bip!,"Carga de tarjeta, Consulta de saldo, Activacion de carga remota"
20,63356,Miguel Aguilera,Pje. Quechuas 2009,PEÐALOLEN,No hay informacion disponible,-70.558594,-33.475986,Punto Bip!,"Carga de tarjeta, Consulta de saldo, Activacion de carga remota"
21,63396,Punto Arauco,Arauco 185,SANTIAGO,No hay informacion disponible,-70.628563,-33.470284,Punto Bip!,"Carga de tarjeta, Consulta de saldo, Activacion de carga remota"
22,63493,Monica Pilar Espinoza Martinez,El Salto 2911,RECOLETA,No hay informacion disponible,-70.629143,-33.400143,Punto Bip!,"Carga de tarjeta, Consulta de saldo, Activacion de carga remota"
23,63696,Ellen Marlene Moscoso Gas,Cerro Paranal 1765,PUENTE ALTO,No hay informacion disponible,-70.556267,-33.593674,Punto Bip!,"Carga de tarjeta, Consulta de saldo, Activacion de carga remota"
24,64030,Guillermina Ester,Vecinal Norte 734,EL BOSQUE,No hay informacion disponible,-70.671608,-33.578835,Punto Bip!,"Carga de tarjeta, Consulta de saldo, Activacion de carga remota"
25,64317,D Lla Fruit,Manuel Antonio Matta 1920,QUILICURA,No hay informacion disponible,-70.706680,-33.365711,Punto Bip!,"Carga de tarjeta, Consulta de saldo, Activacion de carga remota"
26,65966,Markito,Monja Alferez 4815,SAN MIGUEL,No hay informacion disponible,-70.661499,-33.494587,Punto Bip!,"Carga de tarjeta, Consulta de saldo, Activacion de carga remota"
27,66008,Minimarket Enrique,Barros Arana 1314,SAN BERNARDO,No hay informacion disponible,-70.703407,-33.606628,Punto Bip!,"Carga de tarjeta, Consulta de saldo, Activacion de carga remota"
28,66197,Fernanda,Chiguayante 914,SAN BERNARDO,No hay informacion disponible,-70.702873,-33.576508,Punto Bip!,"Carga de tarjeta, Consulta de saldo, Activacion de carga remota"
29,66294,Juana Del Carmen,Pastoral 526,HUECHURABA,No hay informacion disponible,-70.632820,-33.371140,Punto Bip!,"Carga de tarjeta, Consulta de saldo, Activacion de carga remota"
30,66346,San Andres,Sergio Valdovinos 1285,QUINTA NORMAL,No hay informacion disponible,-70.706963,-33.438274,Punto Bip!,"Carga de tarjeta, Consulta de saldo, Activacion de carga remota"
31,66366,Almacen La Escalera,Alcalde Pedro Alarcon 478,SAN JOAQUIN,No hay informacion disponible,-70.634995,-33.489986,Punto Bip!,"Carga de tarjeta, Consulta de saldo, Activacion de carga remota"
32,66420,Com Gonzalez,Av. Salvador Gutierrez 8009,CERRO NAVIA,No hay informacion disponible,-70.750694,-33.416611,Punto Bip!,"Carga de tarjeta, Consulta de saldo, Activacion de carga remota"
33,66463,Isabel Cecilia Cisterna Maturana,Av. Vicuna Mackenna Poniente 9705 B,LA FLORIDA,No hay informacion disponible,-70.588516,-33.546024,Punto Bip!,"Carga de tarjeta, Consulta de saldo, Activacion de carga remota"
34,67259,Karen,San Francisco 9134,SAN RAMON,No hay informacion disponible,-70.651314,-33.542683,Punto Bip!,"Carga de tarjeta, Consulta de saldo, Activacion de carga remota"
35,67554,El Negrito,Jose Miguel Infante 5650,RENCA,No hay informacion disponible,-70.731560,-33.407543,Punto Bip!,"Carga de tarjeta, Consulta de saldo, Activacion de carga remota"
36,68367,Lenny,Rio Malleco 747,QUILICURA,No hay informacion disponible,-70.759842,-33.360477,Punto Bip!,"Carga de tarjeta, Consulta de saldo, Activacion de carga remota"
37,69429,Leocrisma,Umbral 2184,PEÐALOLEN,No hay informacion disponible,-70.525696,-33.482056,Punto Bip!,"Carga de tarjeta, Consulta de saldo, Activacion de carga remota"
38,69771,San Ricardo,El Quillay 1108,LA PINTANA,No hay informacion disponible,-70.643684,-33.586246,Punto Bip!,"Carga de tarjeta, Consulta de saldo, Activacion de carga remota"
39,70311,Luan,Raul Olivares 1872,RENCA,No hay informacion disponible,-70.741631,-33.397156,Punto Bip!,"Carga de tarjeta, Consulta de saldo, Activacion de carga remota"
40,71511,Claudia Urrutia,Esmeralda 6349,PEÐALOLEN,No hay informacion disponible,-70.570831,-33.480816,Punto Bip!,"Carga de tarjeta, Consulta de saldo, Activacion de carga remota"
41,72444,Bazar Ariel,Pje. Veinticinco 6504,LO ESPEJO,No hay informacion disponible,-70.673447,-33.510731,Punto Bip!,"Carga de tarjeta, Consulta de saldo, Activacion de carga remota"
42,72860,Vilum Market,Mama Kristina 1680,CERRO NAVIA,No hay informacion disponible,-70.747986,-33.425774,Punto Bip!,"Carga de tarjeta, Consulta de saldo, Activacion de carga remota"
43,73750,Tienda Upa!-Shell (F.165),General Blanche 11860,LAS CONDES,No hay informacion disponible,-70.516800,-33.402817,Punto Bip!,"Carga de tarjeta, Consulta de saldo, Activacion de carga remota"
44,75873,Rosa Carvajal Contreras,Rio Aconcagua 1014,LA GRANJA,No hay informacion disponible,-70.615486,-33.550426,Punto Bip!,"Carga de tarjeta, Consulta de saldo, Activacion de carga remota"
45,76073,El Talento,El Ebano 1019,QUILICURA,No hay informacion disponible,-70.718521,-33.353386,Punto Bip!,"Carga de tarjeta, Consulta de saldo, Activacion de carga remota"
46,78875,Tienda Upa!-Shell (F.152),Av. Cristobal Colon 4359,LAS CONDES,No hay informacion disponible,-70.581261,-33.424271,Punto Bip!,"Carga de tarjeta, Consulta de saldo, Activacion de carga remota"
47,79247,Las Princesitas,Jose Manuel Balmaceda 1252,LA PINTANA,No hay informacion disponible,-70.639549,-33.578808,Punto Bip!,"Carga de tarjeta, Consulta de saldo, Activacion de carga remota"
48,79356,Tienda Upa!-Shell (F.107),Av. Francisco Bilbao 3785,PROVIDENCIA,No hay informacion disponible,-70.584976,-33.432323,Punto Bip!,"Carga de tarjeta, Consulta de saldo, Activacion de carga remota"
49,79467,El Droopy,Victoria 3266,MAIPU,No hay informacion disponible,-70.769142,-33.497200,Punto Bip!,"Carga de tarjeta, Consulta de saldo, Activacion de carga remota"
50,79576,Brindis,Freire 695,SAN BERNARDO,No hay informacion disponible,-70.704910,-33.595913,Punto Bip!,"Carga de tarjeta, Consulta de saldo, Activacion de carga remota"
51,79827,Jenny Alvarez Fuentes,Av. Central Cardenal Raul Silva Henriquez 4635,PEDRO AGUIRRE CERDA,No hay informacion disponible,-70.686848,-33.495227,Punto Bip!,"Carga de tarjeta, Consulta de saldo, Activacion de carga remota"
52,79964,La Cote,Teniente Cruz 1494,CERRO NAVIA,No hay informacion disponible,-70.739830,-33.425480,Punto Bip!,"Carga de tarjeta, Consulta de saldo, Activacion de carga remota"
53,80074,Tienda Upa!-Shell (F.159),Av. Pedro Aguirre Cerda 4981,CERRILLOS,No hay informacion disponible,-70.697952,-33.485146,Punto Bip!,"Carga de tarjeta, Consulta de saldo, Activacion de carga remota"
54,80481,Ecomarket S,Los Manutaras 530,PUDAHUEL,No hay informacion disponible,-70.740028,-33.458115,Punto Bip!,"Carga de tarjeta, Consulta de saldo, Activacion de carga remota"
55,80870,Tienda Upa!-Shell (F.793),Carlos Antunez 2490,PROVIDENCIA,No hay informacion disponible,-70.601982,-33.426670,Punto Bip!,"Carga de tarjeta, Consulta de saldo, Activacion de carga remota"
56,81719,Say Herminia Balboa Flores,Cooperacion 6381,PEDRO AGUIRRE CERDA,No hay informacion disponible,-70.687584,-33.504448,Punto Bip!,"Carga de tarjeta, Consulta de saldo, Activacion de carga remota"
57,83061,Donde La Nancy,Estadio De Quilicura 67,QUILICURA,No hay informacion disponible,-70.739479,-33.349995,Punto Bip!,"Carga de tarjeta, Consulta de saldo, Activacion de carga remota"
58,83856,Donde Las Chiquillas,Burgos 193,QUILICURA,No hay informacion disponible,-70.734184,-33.353523,Punto Bip!,"Carga de tarjeta, Consulta de saldo, Activacion de carga remota"
59,87106,Bazar,Parque Central Poniente 1189 A,MAIPU,No hay informacion disponible,-70.786079,-33.561733,Punto Bip!,"Carga de tarjeta, Consulta de saldo, Activacion de carga remota"
60,87775,Provisiones Olguita Recol,La Valleja 4091,RECOLETA,No hay informacion disponible,-70.653564,-33.384781,Punto Bip!,"Carga de tarjeta, Consulta de saldo, Activacion de carga remota"
61,88188,Libreria Jit,Presidente Kennedy 7946,VITACURA,No hay informacion disponible,-70.553543,-33.391277,Punto Bip!,"Carga de tarjeta, Consulta de saldo, Activacion de carga remota"
62,88189,Martina,Simon Bolivar 4444,MAIPU,No hay informacion disponible,-70.723328,-33.473892,Punto Bip!,"Carga de tarjeta, Consulta de saldo, Activacion de carga remota"
63,88192,Kiosko Bip Vitacura Las U,Av. Vitacura 9275,VITACURA,No hay informacion disponible,-70.546761,-33.382355,Punto Bip!,"Carga de tarjeta, Consulta de saldo, Activacion de carga remota"
64,88204,Minimarket Keko,Tehuaco 1331,ESTACION CENTRAL,No hay informacion disponible,-70.698723,-33.474583,Punto Bip!,"Carga de tarjeta, Consulta de saldo, Activacion de carga remota"
65,88206,Los Socios,Av. 5 De Abril 5493 B,ESTACION CENTRAL,No hay informacion disponible,-70.715271,-33.469543,Punto Bip!,"Carga de tarjeta, Consulta de saldo, Activacion de carga remota"
66,88229,Don Remi,La Primavera 930,CERRILLOS,No hay informacion disponible,-70.733894,-33.508465,Punto Bip!,"Carga de tarjeta, Consulta de saldo, Activacion de carga remota"
67,88233,Yasnita Y Carlitos,Antartica 4730,ESTACION CENTRAL,No hay informacion disponible,-70.699295,-33.470070,Punto Bip!,"Carga de tarjeta, Consulta de saldo, Activacion de carga remota"
68,88234,Luis Mora,Felix Margoz 844,CERRILLOS,No hay informacion disponible,-70.715294,-33.490589,Punto Bip!,"Carga de tarjeta, Consulta de saldo, Activacion de carga remota"
69,88842,Tienda Upa!-Shell (F.130),Bellavista 151,RECOLETA,No hay informacion disponible,-70.640762,-33.433636,Punto Bip!,"Carga de tarjeta, Consulta de saldo, Activacion de carga remota"
70,88999,Nuestros Querubines,El Bosque 10682,LA PINTANA,No hay informacion disponible,-70.634102,-33.559299,Punto Bip!,"Carga de tarjeta, Consulta de saldo, Activacion de carga remota"
71,89035,Minimarket Esperanza,Esperanza 1394,SANTIAGO,No hay informacion disponible,-70.677422,-33.429501,Punto Bip!,"Carga de tarjeta, Consulta de saldo, Activacion de carga remota"
72,89406,Camila,San Pablo 2811,SANTIAGO,No hay informacion disponible,-70.675278,-33.435265,Punto Bip!,"Carga de tarjeta, Consulta de saldo, Activacion de carga remota"
73,89650,Tio Arturo,San Andres 4165 A,CERRILLOS,No hay informacion disponible,-70.688744,-33.481895,Punto Bip!,"Carga de tarjeta, Consulta de saldo, Activacion de carga remota"
74,89655,Panaderia Villa Mexico,Los Tilos 421,CERRILLOS,No hay informacion disponible,-70.729919,-33.508106,Punto Bip!,"Carga de tarjeta, Consulta de saldo, Activacion de carga remota"
75,89661,Luis Ramirez Rabie Cerril,Ciudad De Mexico 302,CERRILLOS,No hay informacion disponible,-70.736595,-33.509445,Punto Bip!,"Carga de tarjeta, Consulta de saldo, Activacion de carga remota"
76,89665,Bazar Freddy,Chillan 1247,RENCA,No hay informacion disponible,-70.697563,-33.408367,Punto Bip!,"Carga de tarjeta, Consulta de saldo, Activacion de carga remota"
77,89666,Almacen El Progreso,Balmaceda 4804,RENCA,No hay informacion disponible,-70.718536,-33.401707,Punto Bip!,"Carga de tarjeta, Consulta de saldo, Activacion de carga remota"
78,89667,El Mirador,El Mirador 504,CERRILLOS,No hay informacion disponible,-70.719154,-33.504833,Punto Bip!,"Carga de tarjeta, Consulta de saldo, Activacion de carga remota"
79,89690,Santos,Bolivia 1729,SAN RAMON,No hay informacion disponible,-70.644470,-33.539028,Punto Bip!,"Carga de tarjeta, Consulta de saldo, Activacion de carga remota"
80,89698,El Cid,Historiador Jaime Eyzaguirre 2076,MACUL,No hay informacion disponible,-70.580360,-33.474384,Punto Bip!,"Carga de tarjeta, Consulta de saldo, Activacion de carga remota"
81,89699,Santa Irma,Boyero 7750,LO ESPEJO,No hay informacion disponible,-70.691338,-33.522381,Punto Bip!,"Carga de tarjeta, Consulta de saldo, Activacion de carga remota"
82,89708,Botilleria Don Pato,El Mirador 529,CERRILLOS,No hay informacion disponible,-70.719734,-33.504536,Punto Bip!,"Carga de tarjeta, Consulta de saldo, Activacion de carga remota"
83,89713,La Escala Sur,Circunvalacion Sur 920,LO BARNECHEA,No hay informacion disponible,-70.501045,-33.359512,Punto Bip!,"Carga de tarjeta, Consulta de saldo, Activacion de carga remota"
84,89747,Lobusan,Valenzuela Llanos 3215,PEDRO AGUIRRE CERDA,No hay informacion disponible,-70.677086,-33.479618,Punto Bip!,"Carga de tarjeta, Consulta de saldo, Activacion de carga remota"
85,89945,Santa Ana,Navidad 2118,PEDRO AGUIRRE CERDA,No hay informacion disponible,-70.675232,-33.507133,Punto Bip!,"Carga de tarjeta, Consulta de saldo, Activacion de carga remota"
86,90311,El Chimbotano,Santa Isabel 570,SANTIAGO,No hay informacion disponible,-70.642540,-33.450336,Punto Bip!,"Carga de tarjeta, Consulta de saldo, Activacion de carga remota"
87,91449,Sr De Muruhuay,Rivera 1558,INDEPENDENCIA,No hay informacion disponible,-70.657196,-33.426060,Punto Bip!,"Carga de tarjeta, Consulta de saldo, Activacion de carga remota"
88,91684,Araknido,Heroe Juan Benito Jofre 570,RECOLETA,No hay informacion disponible,-70.640137,-33.385544,Punto Bip!,"Carga de tarjeta, Consulta de saldo, Activacion de carga remota"
89,91978,Big Chance 2,Benito Rebolledo 2927,MACUL,No hay informacion disponible,-70.602737,-33.502338,Punto Bip!,"Carga de tarjeta, Consulta de saldo, Activacion de carga remota"
90,91981,Ludigo,Av. Los Cerrillos 4030 Local 154,PEDRO AGUIRRE CERDA,No hay informacion disponible,-70.684761,-33.482067,Punto Bip!,"Carga de tarjeta, Consulta de saldo, Activacion de carga remota"
91,91986,La Kela,Celanova 1298,LA PINTANA,No hay informacion disponible,-70.654510,-33.558292,Punto Bip!,"Carga de tarjeta, Consulta de saldo, Activacion de carga remota"
92,91988,Sagitario,Doctor Amador Neghme 3900,MACUL,No hay informacion disponible,-70.591446,-33.499233,Punto Bip!,"Carga de tarjeta, Consulta de saldo, Activacion de carga remota"
93,92152,Aquiles Fuenzalida Flores,Av. Jose Pedro Alessandri 4261,MACUL,No hay informacion disponible,-70.600021,-33.492897,Punto Bip!,"Carga de tarjeta, Consulta de saldo, Activacion de carga remota"
94,92187,Bazar Valle Verde Est Cen,Del Parque 76,ESTACION CENTRAL,No hay informacion disponible,-70.723389,-33.461903,Punto Bip!,"Carga de tarjeta, Consulta de saldo, Activacion de carga remota"
95,92188,Botilleria Timy La Pintan,Isabel Bravo 13119,LA PINTANA,No hay informacion disponible,-70.661797,-33.582752,Punto Bip!,"Carga de tarjeta, Consulta de saldo, Activacion de carga remota"
96,92189,Carmelita,Padre Vicente Irarrazabal 1384,ESTACION CENTRAL,No hay informacion disponible,-70.693016,-33.466503,Punto Bip!,"Carga de tarjeta, Consulta de saldo, Activacion de carga remota"
97,92191,Almacen Alicia Y Fidel,Santa Fe 744,SAN MIGUEL,No hay informacion disponible,-70.648338,-33.512070,Punto Bip!,"Carga de tarjeta, Consulta de saldo, Activacion de carga remota"
98,92193,Minimarket Haroldo,Quinchamali 467,LA REINA,No hay informacion disponible,-70.538757,-33.456203,Punto Bip!,"Carga de tarjeta, Consulta de saldo, Activacion de carga remota"
99,92195,3 Oriente,3 Oriente 3437,PEDRO AGUIRRE CERDA,No hay informacion disponible,-70.678764,-33.480850,Punto Bip!,"Carga de tarjeta, Consulta de saldo, Activacion de carga remota"
100,92199,Minimarket,Los Caracoles 168,LA REINA,No hay informacion disponible,-70.534195,-33.453957,Punto Bip!,"Carga de tarjeta, Consulta de saldo, Activacion de carga remota"
101,92201,Don Tomas,Av. Maquinista Gentoso 1101,ESTACION CENTRAL,No hay informacion disponible,-70.686356,-33.462708,Punto Bip!,"Carga de tarjeta, Consulta de saldo, Activacion de carga remota"
102,92204,Almacen Infoser,Diagonal Sur Oriente 0277,LA GRANJA,No hay informacion disponible,-70.630241,-33.545574,Punto Bip!,"Carga de tarjeta, Consulta de saldo, Activacion de carga remota"
103,92207,Minimarket,Pje. Santa Rita 13715,LO BARNECHEA,No hay informacion disponible,-70.505008,-33.362906,Punto Bip!,"Carga de tarjeta, Consulta de saldo, Activacion de carga remota"
104,92212,Rita,Domingo Santa Cruz 0827,LA PINTANA,No hay informacion disponible,-70.654541,-33.584957,Punto Bip!,"Carga de tarjeta, Consulta de saldo, Activacion de carga remota"
105,92218,El Alvear,Celanova 1726,LA PINTANA,No hay informacion disponible,-70.649239,-33.558620,Punto Bip!,"Carga de tarjeta, Consulta de saldo, Activacion de carga remota"
106,92240,Richy,Golfo Trinidad 1043,LA PINTANA,No hay informacion disponible,-70.645775,-33.579754,Punto Bip!,"Carga de tarjeta, Consulta de saldo, Activacion de carga remota"
107,92241,Leidy,Artemio Gutierrez 2505,SAN JOAQUIN,No hay informacion disponible,-70.632332,-33.477798,Punto Bip!,"Carga de tarjeta, Consulta de saldo, Activacion de carga remota"
108,92251,Bristela Muðoz Garrido,Las Petunias 119,HUECHURABA,No hay informacion disponible,-70.618294,-33.377609,Punto Bip!,"Carga de tarjeta, Consulta de saldo, Activacion de carga remota"
109,92260,Ronald,Av. Tome 273,LA GRANJA,No hay informacion disponible,-70.628456,-33.532654,Punto Bip!,"Carga de tarjeta, Consulta de saldo, Activacion de carga remota"
110,92263,Mami Maria,Almirante Latorre 10600,LA PINTANA,No hay informacion disponible,-70.645378,-33.556410,Punto Bip!,"Carga de tarjeta, Consulta de saldo, Activacion de carga remota"
111,92265,Amasanderia Royal,5 De Abril 1400,CERRILLOS,No hay informacion disponible,-70.741153,-33.509876,Punto Bip!,"Carga de tarjeta, Consulta de saldo, Activacion de carga remota"
112,92271,La Casita,Temistocles 6498,LO ESPEJO,No hay informacion disponible,-70.683693,-33.507183,Punto Bip!,"Carga de tarjeta, Consulta de saldo, Activacion de carga remota"
113,92275,Tio Lalo,Pje. Pegaso 3314,LO ESPEJO,No hay informacion disponible,-70.694695,-33.522614,Punto Bip!,"Carga de tarjeta, Consulta de saldo, Activacion de carga remota"
114,92276,Romero Kiosco,Luis Carrera Frente Al 1332,VITACURA,No hay informacion disponible,-70.577118,-33.396858,Punto Bip!,"Carga de tarjeta, Consulta de saldo, Activacion de carga remota"
115,92280,San Rafael,El Carmelo 303,ESTACION CENTRAL,No hay informacion disponible,-70.698982,-33.466400,Punto Bip!,"Carga de tarjeta, Consulta de saldo, Activacion de carga remota"
116,92288,Torito,Clotario Blest 7562 Dpto 101,LO ESPEJO,No hay informacion disponible,-70.685463,-33.517021,Punto Bip!,"Carga de tarjeta, Consulta de saldo, Activacion de carga remota"
117,92305,El Futuro,San Francisco 10944,LA PINTANA,No hay informacion disponible,-70.656242,-33.561028,Punto Bip!,"Carga de tarjeta, Consulta de saldo, Activacion de carga remota"
118,92306,Juan Barraza Sepulveda,Baldomero Lillo 1951,LA PINTANA,No hay informacion disponible,-70.630348,-33.583122,Punto Bip!,"Carga de tarjeta, Consulta de saldo, Activacion de carga remota"
119,92316,El Clan Destino,Av.Central Cardenal Silva Henriquez 6308,PEDRO AGUIRRE CERDA,No hay informacion disponible,-70.689919,-33.502365,Punto Bip!,"Carga de tarjeta, Consulta de saldo, Activacion de carga remota"
120,92318,Erbi - San Juan,San Juan 7209,CERRILLOS,No hay informacion disponible,-70.719475,-33.500008,Punto Bip!,"Carga de tarjeta, Consulta de saldo, Activacion de carga remota"
121,92331,Erbi - San Miguel,Gran Avenida Jose Miguel Carrera 4293,SAN MIGUEL,No hay informacion disponible,-70.652443,-33.493378,Punto Bip!,"Carga de tarjeta, Consulta de saldo, Activacion de carga remota"
122,92333,La Papa,Manuel Rodriguez 4309,ESTACION CENTRAL,No hay informacion disponible,-70.693054,-33.473312,Punto Bip!,"Carga de tarjeta, Consulta de saldo, Activacion de carga remota"
123,92338,Minimarket Cerro 18,Camino Circunvalacion Norte 1227,LO BARNECHEA,No hay informacion disponible,-70.500809,-33.353683,Punto Bip!,"Carga de tarjeta, Consulta de saldo, Activacion de carga remota"
124,92341,Voy Y Vuelvo,Las Verbenas 669,LA GRANJA,No hay informacion disponible,-70.622276,-33.555157,Punto Bip!,"Carga de tarjeta, Consulta de saldo, Activacion de carga remota"
125,92343,Tia Maggy,Los Apostoles 3917,MACUL,No hay informacion disponible,-70.586983,-33.491035,Punto Bip!,"Carga de tarjeta, Consulta de saldo, Activacion de carga remota"
126,92347,Internet R.A.P.,Lo Errazuriz 4275,CERRILLOS,No hay informacion disponible,-70.722404,-33.476219,Punto Bip!,"Carga de tarjeta, Consulta de saldo, Activacion de carga remota"
127,92349,Haydee Olivero,La Bandera 9127,SAN RAMON,No hay informacion disponible,-70.645073,-33.543564,Punto Bip!,"Carga de tarjeta, Consulta de saldo, Activacion de carga remota"
128,92350,Donde Carlitos,General Arriagada 0347,LA PINTANA,No hay informacion disponible,-70.625748,-33.563347,Punto Bip!,"Carga de tarjeta, Consulta de saldo, Activacion de carga remota"
129,92352,Carlos Ramirez Caceres,El Ombu 2910,LA PINTANA,No hay informacion disponible,-70.620895,-33.594685,Punto Bip!,"Carga de tarjeta, Consulta de saldo, Activacion de carga remota"
130,92354,Botilleria Los Portenos S,Pedro Aguirre Cerda 6064,HUECHURABA,No hay informacion disponible,-70.636703,-33.363297,Punto Bip!,"Carga de tarjeta, Consulta de saldo, Activacion de carga remota"
131,92418,El Amigo,Los Marroquineros 6435,PEÐALOLEN,No hay informacion disponible,-70.566269,-33.506767,Punto Bip!,"Carga de tarjeta, Consulta de saldo, Activacion de carga remota"
132,92431,Maria Santander,Los Cerezos 6016,PEÐALOLEN,No hay informacion disponible,-70.575264,-33.507702,Punto Bip!,"Carga de tarjeta, Consulta de saldo, Activacion de carga remota"
133,92442,Frutos Del Pais Bj,Ictinos 1338,PEÐALOLEN,No hay informacion disponible,-70.561348,-33.468655,Punto Bip!,"Carga de tarjeta, Consulta de saldo, Activacion de carga remota"
134,92446,Panamtur,Av. Apoquindo 5701,LAS CONDES,No hay informacion disponible,-70.569939,-33.410065,Punto Bip!,"Carga de tarjeta, Consulta de saldo, Activacion de carga remota"
135,92458,Textil Grecia,Av. Consistorial 1380,PEÐALOLEN,No hay informacion disponible,-70.541229,-33.471165,Punto Bip!,"Carga de tarjeta, Consulta de saldo, Activacion de carga remota"
136,92462,El Bebe,Sta. Ines 2291,CONCHALI,No hay informacion disponible,-70.676804,-33.396400,Punto Bip!,"Carga de tarjeta, Consulta de saldo, Activacion de carga remota"
137,92466,L - L,Av. Coronel Alejandro Sepulveda 2299,PEÐALOLEN,No hay informacion disponible,-70.566284,-33.475075,Punto Bip!,"Carga de tarjeta, Consulta de saldo, Activacion de carga remota"
138,92471,La Central,Los Baqueanos 9685,PEÐALOLEN,No hay informacion disponible,-70.531464,-33.473892,Punto Bip!,"Carga de tarjeta, Consulta de saldo, Activacion de carga remota"
139,92477,Canta Gallo,Lago Yultan 1381,PEÐALOLEN,No hay informacion disponible,-70.542847,-33.470848,Punto Bip!,"Carga de tarjeta, Consulta de saldo, Activacion de carga remota"
140,92487,Paolita,Baron De Juras Reales 3586,CONCHALI,No hay informacion disponible,-70.679382,-33.397552,Punto Bip!,"Carga de tarjeta, Consulta de saldo, Activacion de carga remota"
141,92496,Dania,Las Parcelas 9242 A,PEÐALOLEN,No hay informacion disponible,-70.536400,-33.472530,Punto Bip!,"Carga de tarjeta, Consulta de saldo, Activacion de carga remota"
142,92500,Ganadera Del Sur,Av. El Valle 6482,PEÐALOLEN,No hay informacion disponible,-70.566216,-33.477707,Punto Bip!,"Carga de tarjeta, Consulta de saldo, Activacion de carga remota"
143,92501,Paul Harris,Av. Cristobal Colon 9193,LAS CONDES,No hay informacion disponible,-70.534477,-33.416416,Punto Bip!,"Carga de tarjeta, Consulta de saldo, Activacion de carga remota"
144,92504,San Luis,Calle 117 1141,PEÐALOLEN,No hay informacion disponible,-70.552689,-33.468662,Punto Bip!,"Carga de tarjeta, Consulta de saldo, Activacion de carga remota"
145,92505,Los Viðedos Del Con Pena,Av. Consistorial 5340,PEÐALOLEN,No hay informacion disponible,-70.550507,-33.494583,Punto Bip!,"Carga de tarjeta, Consulta de saldo, Activacion de carga remota"
146,92520,Brujitas Fiestas,Gral. Gambino 4141,CONCHALI,No hay informacion disponible,-70.660675,-33.383678,Punto Bip!,"Carga de tarjeta, Consulta de saldo, Activacion de carga remota"
147,92521,Pescaderia Puerto Colon,Sebastian Elcano 1033,LAS CONDES,No hay informacion disponible,-70.571625,-33.419277,Punto Bip!,"Carga de tarjeta, Consulta de saldo, Activacion de carga remota"
148,92523,Beatriz Villalobos,Av. Cardenal Jose Maria Caro 1814,CONCHALI,No hay informacion disponible,-70.683334,-33.373413,Punto Bip!,"Carga de tarjeta, Consulta de saldo, Activacion de carga remota"
149,92525,La Abuelita,El Parque 901,PEÐALOLEN,No hay informacion disponible,-70.525314,-33.470352,Punto Bip!,"Carga de tarjeta, Consulta de saldo, Activacion de carga remota"
150,92531,Kiosco Bip Manquehue,Latadia Esq. Manquehue,LAS CONDES,No hay informacion disponible,-70.563724,-33.427120,Punto Bip!,"Carga de tarjeta, Consulta de saldo, Activacion de carga remota"
151,92532,Donde Jaime,Lago Yultan 1271,PEÐALOLEN,No hay informacion disponible,-70.542572,-33.469872,Punto Bip!,"Carga de tarjeta, Consulta de saldo, Activacion de carga remota"
152,92541,Abarrotes La Plaza,Lago Parinacota 3716 Local C,MACUL,No hay informacion disponible,-70.593391,-33.477638,Punto Bip!,"Carga de tarjeta, Consulta de saldo, Activacion de carga remota"
153,92548,L - L,Ramon Cruz Montt 2525,MACUL,No hay informacion disponible,-70.582886,-33.478230,Punto Bip!,"Carga de tarjeta, Consulta de saldo, Activacion de carga remota"
154,92556,El Vichito,Pje. N 1718,PEÐALOLEN,No hay informacion disponible,-70.535156,-33.475258,Punto Bip!,"Carga de tarjeta, Consulta de saldo, Activacion de carga remota"
155,92560,Erna Asem,Del Granito 1232,CONCHALI,No hay informacion disponible,-70.666588,-33.376495,Punto Bip!,"Carga de tarjeta, Consulta de saldo, Activacion de carga remota"
156,92570,El Roro,Cooperacion 5930,PEDRO AGUIRRE CERDA,No hay informacion disponible,-70.684441,-33.498814,Punto Bip!,"Carga de tarjeta, Consulta de saldo, Activacion de carga remota"
157,92574,Puelmapu,Los Baqueanos 9815,PEÐALOLEN,No hay informacion disponible,-70.530029,-33.474194,Punto Bip!,"Carga de tarjeta, Consulta de saldo, Activacion de carga remota"
158,92583,La Buena Carne,Av. El Salto 2635,RECOLETA,No hay informacion disponible,-70.631104,-33.403034,Punto Bip!,"Carga de tarjeta, Consulta de saldo, Activacion de carga remota"
159,92584,Andres,Coyhaique 1783,RENCA,No hay informacion disponible,-70.724342,-33.395756,Punto Bip!,"Carga de tarjeta, Consulta de saldo, Activacion de carga remota"
160,92622,Lily La,Sta. Anselma 291,LA CISTERNA,No hay informacion disponible,-70.666183,-33.530254,Punto Bip!,"Carga de tarjeta, Consulta de saldo, Activacion de carga remota"
161,92631,Manolo,Nueva De Matte 2740,INDEPENDENCIA,No hay informacion disponible,-70.673805,-33.408978,Punto Bip!,"Carga de tarjeta, Consulta de saldo, Activacion de carga remota"
162,92633,Isa,Padre Faustino Gazziero 2501,INDEPENDENCIA,No hay informacion disponible,-70.670261,-33.411987,Punto Bip!,"Carga de tarjeta, Consulta de saldo, Activacion de carga remota"
163,92637,Minimarket Nenita,Pernas 1185,RECOLETA,No hay informacion disponible,-70.656609,-33.382118,Punto Bip!,"Carga de tarjeta, Consulta de saldo, Activacion de carga remota"
164,92647,Botilleria San Esteban,Juan Cristobal 4030,RECOLETA,No hay informacion disponible,-70.650299,-33.385876,Punto Bip!,"Carga de tarjeta, Consulta de saldo, Activacion de carga remota"
165,92651,Leal,Av. El Parron 0281,LA CISTERNA,No hay informacion disponible,-70.664055,-33.525455,Punto Bip!,"Carga de tarjeta, Consulta de saldo, Activacion de carga remota"
166,92653,El Trebol,Loreto 269,RECOLETA,No hay informacion disponible,-70.641617,-33.430668,Punto Bip!,"Carga de tarjeta, Consulta de saldo, Activacion de carga remota"
167,92655,Brasil,Brasil 998,RENCA,No hay informacion disponible,-70.746445,-33.400097,Punto Bip!,"Carga de tarjeta, Consulta de saldo, Activacion de carga remota"
168,92659,Casseteria Center,Gran Avenida Jose Miguel Carrera 6563,LA CISTERNA,No hay informacion disponible,-70.659653,-33.517216,Punto Bip!,"Carga de tarjeta, Consulta de saldo, Activacion de carga remota"
169,92661,Ridenvan,Salar 6572,RENCA,No hay informacion disponible,-70.738632,-33.407925,Punto Bip!,"Carga de tarjeta, Consulta de saldo, Activacion de carga remota"
170,92662,La Esquina,Av. Independencia 2998,INDEPENDENCIA,No hay informacion disponible,-70.667984,-33.399826,Punto Bip!,"Carga de tarjeta, Consulta de saldo, Activacion de carga remota"
171,92680,Santa Elvira,Av. Recoleta 2841,RECOLETA,No hay informacion disponible,-70.642754,-33.400822,Punto Bip!,"Carga de tarjeta, Consulta de saldo, Activacion de carga remota"
172,92707,El Esfuerzo,Venecia 4811,RENCA,No hay informacion disponible,-70.718742,-33.402443,Punto Bip!,"Carga de tarjeta, Consulta de saldo, Activacion de carga remota"
173,92711,El Chamaco,Pan 6889,RENCA,No hay informacion disponible,-70.741577,-33.410030,Punto Bip!,"Carga de tarjeta, Consulta de saldo, Activacion de carga remota"
174,92721,Las Milbes,Av. Recoleta 628,RECOLETA,No hay informacion disponible,-70.645889,-33.424835,Punto Bip!,"Carga de tarjeta, Consulta de saldo, Activacion de carga remota"
175,92724,La Estrellita,Pje. Hercules 941,RENCA,No hay informacion disponible,-70.745094,-33.410301,Punto Bip!,"Carga de tarjeta, Consulta de saldo, Activacion de carga remota"
176,92745,Donde La Rosita,Pedro Fontova 4751,CONCHALI,No hay informacion disponible,-70.671913,-33.383572,Punto Bip!,"Carga de tarjeta, Consulta de saldo, Activacion de carga remota"
177,92817,Albin Freddy,Eduardo Anguita 1127,SAN BERNARDO,No hay informacion disponible,-70.680046,-33.600857,Punto Bip!,"Carga de tarjeta, Consulta de saldo, Activacion de carga remota"
178,92824,Rigoletto,Av. Providencia 1769,PROVIDENCIA,No hay informacion disponible,-70.615105,-33.426834,Punto Bip!,"Carga de tarjeta, Consulta de saldo, Activacion de carga remota"
179,92835,Pacovi,Claudio Arrau 326,EL BOSQUE,No hay informacion disponible,-70.679634,-33.564713,Punto Bip!,"Carga de tarjeta, Consulta de saldo, Activacion de carga remota"
180,92839,Makai,Rio Rapel 13212,EL BOSQUE,No hay informacion disponible,-70.671608,-33.580589,Punto Bip!,"Carga de tarjeta, Consulta de saldo, Activacion de carga remota"
181,92840,Donde Mis Queridos Viejos,Av. Observatorio 1196 B,EL BOSQUE,No hay informacion disponible,-70.662430,-33.561489,Punto Bip!,"Carga de tarjeta, Consulta de saldo, Activacion de carga remota"
182,92844,Bucaneros,Indio Geronimo 10457,EL BOSQUE,No hay informacion disponible,-70.689178,-33.552128,Punto Bip!,"Carga de tarjeta, Consulta de saldo, Activacion de carga remota"
183,92850,El Negrito,Vecinal Sur 1977,EL BOSQUE,No hay informacion disponible,-70.663040,-33.582081,Punto Bip!,"Carga de tarjeta, Consulta de saldo, Activacion de carga remota"
184,92904,Super Almacen,Bellavista 419,RECOLETA,No hay informacion disponible,-70.645309,-33.432453,Punto Bip!,"Carga de tarjeta, Consulta de saldo, Activacion de carga remota"
185,92914,La Feria Del Cassette,Eyzaguirre 521,SAN BERNARDO,No hay informacion disponible,-70.705437,-33.593143,Punto Bip!,"Carga de tarjeta, Consulta de saldo, Activacion de carga remota"
186,92916,La Paloma,Pto. Grosse 0928,SAN BERNARDO,No hay informacion disponible,-70.685326,-33.601768,Punto Bip!,"Carga de tarjeta, Consulta de saldo, Activacion de carga remota"
187,92920,El Arbolito,Mar De Drake 433,PUDAHUEL,No hay informacion disponible,-70.745110,-33.457535,Punto Bip!,"Carga de tarjeta, Consulta de saldo, Activacion de carga remota"
188,92925,Minimarket Victoria Pudah,Pje. Los Onas 630,PUDAHUEL,No hay informacion disponible,-70.754837,-33.448681,Punto Bip!,"Carga de tarjeta, Consulta de saldo, Activacion de carga remota"
189,92929,Paola,Guafo 2182,SAN BERNARDO,No hay informacion disponible,-70.710281,-33.613117,Punto Bip!,"Carga de tarjeta, Consulta de saldo, Activacion de carga remota"
190,92935,Olga Regina Meza Fuentes,Sta. Victoria 1310 Local 3,PUDAHUEL,No hay informacion disponible,-70.758530,-33.431313,Punto Bip!,"Carga de tarjeta, Consulta de saldo, Activacion de carga remota"
191,92936,Katty,Ducaud 15156,SAN BERNARDO,No hay informacion disponible,-70.683945,-33.597927,Punto Bip!,"Carga de tarjeta, Consulta de saldo, Activacion de carga remota"
192,92937,Karina,Pablo Neruda 8935,PUDAHUEL,No hay informacion disponible,-70.753799,-33.430176,Punto Bip!,"Carga de tarjeta, Consulta de saldo, Activacion de carga remota"
193,92942,Olga Elena,Colbun 2197,SAN BERNARDO,No hay informacion disponible,-70.708237,-33.613995,Punto Bip!,"Carga de tarjeta, Consulta de saldo, Activacion de carga remota"
194,92954,Bazar Melissa,Av. Eyzaguirre 1086,SAN BERNARDO,No hay informacion disponible,-70.712387,-33.601093,Punto Bip!,"Carga de tarjeta, Consulta de saldo, Activacion de carga remota"
195,92967,Farm Y Perfumeria Serrano,Serrano 1336,PUDAHUEL,No hay informacion disponible,-70.767014,-33.433949,Punto Bip!,"Carga de tarjeta, Consulta de saldo, Activacion de carga remota"
196,92971,Minimarket Franedu,Pje. Samos 682,PUDAHUEL,No hay informacion disponible,-70.764122,-33.446064,Punto Bip!,"Carga de tarjeta, Consulta de saldo, Activacion de carga remota"
197,92972,Catherinne,Serrano 1183,PUDAHUEL,No hay informacion disponible,-70.767258,-33.436417,Punto Bip!,"Carga de tarjeta, Consulta de saldo, Activacion de carga remota"
198,92973,Angelica,Pje. Los Papagayos 7149,PUDAHUEL,No hay informacion disponible,-70.738892,-33.458496,Punto Bip!,"Carga de tarjeta, Consulta de saldo, Activacion de carga remota"
199,92974,El Lulo,Alfa Centauro 8599,PUDAHUEL,No hay informacion disponible,-70.755608,-33.460381,Punto Bip!,"Carga de tarjeta, Consulta de saldo, Activacion de carga remota"
200,92976,Isabel,Albizu Campos 1234,PUDAHUEL,No hay informacion disponible,-70.745659,-33.431061,Punto Bip!,"Carga de tarjeta, Consulta de saldo, Activacion de carga remota"
201,92980,Minimarket Hollywood,Pje. Senado 369,PUDAHUEL,No hay informacion disponible,-70.75485636,-33.45764323,Punto Bip!,"Carga de tarjeta, Consulta de saldo, Activacion de carga remota"
202,92981,Donde Pancho,La Travesia 8622,PUDAHUEL,No hay informacion disponible,-70.755157,-33.455303,Punto Bip!,"Carga de tarjeta, Consulta de saldo, Activacion de carga remota"
203,92983,Minimarket Fernandita Pud,Laguna San Rafael 8382,PUDAHUEL,No hay informacion disponible,-70.750397,-33.461929,Punto Bip!,"Carga de tarjeta, Consulta de saldo, Activacion de carga remota"
204,92984,El Pequeno,San Daniel 1204,PUDAHUEL,No hay informacion disponible,-70.747620,-33.430977,Punto Bip!,"Carga de tarjeta, Consulta de saldo, Activacion de carga remota"
205,92985,Sonia,Nicanor Molinare 1230,PUDAHUEL,No hay informacion disponible,-70.742905,-33.431007,Punto Bip!,"Carga de tarjeta, Consulta de saldo, Activacion de carga remota"
206,92988,Janet Opazo,San Francisco 8866,PUDAHUEL,No hay informacion disponible,-70.755424,-33.436409,Punto Bip!,"Carga de tarjeta, Consulta de saldo, Activacion de carga remota"
207,92989,La Bodeguita,Pje. Pto. Piedras 8262,PUDAHUEL,No hay informacion disponible,-70.747726,-33.465343,Punto Bip!,"Carga de tarjeta, Consulta de saldo, Activacion de carga remota"
208,92991,Giselle,Las Misioneras 9436,PUDAHUEL,No hay informacion disponible,-70.769951,-33.444965,Punto Bip!,"Carga de tarjeta, Consulta de saldo, Activacion de carga remota"
209,92993,Rufina,Rufina Castillo 738,PUDAHUEL,No hay informacion disponible,-70.759315,-33.444004,Punto Bip!,"Carga de tarjeta, Consulta de saldo, Activacion de carga remota"
210,92997,Marcela,El Abeto 8936,PUDAHUEL,No hay informacion disponible,-70.764114,-33.455719,Punto Bip!,"Carga de tarjeta, Consulta de saldo, Activacion de carga remota"
211,93001,Milagro,Av. Laguna Sur 8617,PUDAHUEL,No hay informacion disponible,-70.756157,-33.459194,Punto Bip!,"Carga de tarjeta, Consulta de saldo, Activacion de carga remota"
212,93002,Farm Aravil,Av. 11 De Septiembre 1773 B,PROVIDENCIA,No hay informacion disponible,-70.614662,-33.425991,Punto Bip!,"Carga de tarjeta, Consulta de saldo, Activacion de carga remota"
213,93013,Manuel Guillermo,Jose Manuel Infante 1673,PROVIDENCIA,No hay informacion disponible,-70.619064,-33.446445,Punto Bip!,"Carga de tarjeta, Consulta de saldo, Activacion de carga remota"
214,93026,Axel,San Andres 301,QUILICURA,No hay informacion disponible,-70.739494,-33.352451,Punto Bip!,"Carga de tarjeta, Consulta de saldo, Activacion de carga remota"
215,93027,Nicole,Pje. Estero Maiquen 026,QUILICURA,No hay informacion disponible,-70.738365,-33.362526,Punto Bip!,"Carga de tarjeta, Consulta de saldo, Activacion de carga remota"
216,93030,Bernardita,Ramon Rosales 1071,QUILICURA,No hay informacion disponible,-70.721916,-33.370426,Punto Bip!,"Carga de tarjeta, Consulta de saldo, Activacion de carga remota"
217,93035,Regina Clemencia Zuniga B,Pto. De Valparaiso 730,QUILICURA,No hay informacion disponible,-70.752464,-33.359390,Punto Bip!,"Carga de tarjeta, Consulta de saldo, Activacion de carga remota"
218,93039,Nicolas,Los Amerindios 1082,QUILICURA,No hay informacion disponible,-70.717804,-33.359356,Punto Bip!,"Carga de tarjeta, Consulta de saldo, Activacion de carga remota"
219,93041,Conny,Estacion Rungue 875,QUILICURA,No hay informacion disponible,-70.745499,-33.353069,Punto Bip!,"Carga de tarjeta, Consulta de saldo, Activacion de carga remota"
220,93047,Almacen Miriam,Volcan Villarrica 379,QUILICURA,No hay informacion disponible,-70.749405,-33.363949,Punto Bip!,"Carga de tarjeta, Consulta de saldo, Activacion de carga remota"
221,93056,Pimienta Y Canela,Lo Ovalle 366,QUILICURA,No hay informacion disponible,-70.734024,-33.352161,Punto Bip!,"Carga de tarjeta, Consulta de saldo, Activacion de carga remota"
222,93074,Conimax,Av. Lo Marcoleta 0756,QUILICURA,No hay informacion disponible,-70.757507,-33.362312,Punto Bip!,"Carga de tarjeta, Consulta de saldo, Activacion de carga remota"
223,93077,Santa Corina,Los Tres Antonios 98,ÐUÐOA,No hay informacion disponible,-70.602425,-33.455372,Punto Bip!,"Carga de tarjeta, Consulta de saldo, Activacion de carga remota"
224,93092,Almacen El Tito,Paseo El Prado 615,QUILICURA,No hay informacion disponible,-70.722641,-33.349937,Punto Bip!,"Carga de tarjeta, Consulta de saldo, Activacion de carga remota"
225,93093,Yasna,Pje. Pto. Fonck 0628,QUILICURA,No hay informacion disponible,-70.753601,-33.360710,Punto Bip!,"Carga de tarjeta, Consulta de saldo, Activacion de carga remota"
226,93095,Patito,Salar Del Carmen 0435,QUILICURA,No hay informacion disponible,-70.750031,-33.356358,Punto Bip!,"Carga de tarjeta, Consulta de saldo, Activacion de carga remota"
227,93099,Los Biancos,Av. Alcalde Jorge Monckeberg 1733,ÐUÐOA,No hay informacion disponible,-70.586975,-33.470661,Punto Bip!,"Carga de tarjeta, Consulta de saldo, Activacion de carga remota"
228,93102,Belorado,Julio Prado 1885,ÐUÐOA,No hay informacion disponible,-70.620331,-33.450218,Punto Bip!,"Carga de tarjeta, Consulta de saldo, Activacion de carga remota"
229,93105,Yuli,Volcan Villarrica 301,QUILICURA,No hay informacion disponible,-70.749367,-33.363716,Punto Bip!,"Carga de tarjeta, Consulta de saldo, Activacion de carga remota"
230,93107,Bip Internet Polla Loteria Recargas,Av. Grecia 2936,ÐUÐOA,No hay informacion disponible,-70.601166,-33.464169,Punto Bip!,"Carga de tarjeta, Consulta de saldo, Activacion de carga remota"
231,93115,Los Vinedos Del Con. Nuno,Av. Duble Almeyda 1801,ÐUÐOA,No hay informacion disponible,-70.612350,-33.455059,Punto Bip!,"Carga de tarjeta, Consulta de saldo, Activacion de carga remota"
232,93118,Ekeko,Augusto Villanueva 20 Local 1,ÐUÐOA,No hay informacion disponible,-70.588676,-33.455200,Punto Bip!,"Carga de tarjeta, Consulta de saldo, Activacion de carga remota"
233,93120,Il Tabac,Av. Simon Bolivar 4715,ÐUÐOA,No hay informacion disponible,-70.581116,-33.448776,Punto Bip!,"Carga de tarjeta, Consulta de saldo, Activacion de carga remota"
234,93150,Carlos Morales,San Pablo 5024,QUINTA NORMAL,No hay informacion disponible,-70.704674,-33.441071,Punto Bip!,"Carga de tarjeta, Consulta de saldo, Activacion de carga remota"
235,93152,Tia Zuni,Av. Carrascal 6008,QUINTA NORMAL,No hay informacion disponible,-70.712036,-33.416641,Punto Bip!,"Carga de tarjeta, Consulta de saldo, Activacion de carga remota"
236,93161,Soc. Com. Dicer.,San Pablo 4755,QUINTA NORMAL,No hay informacion disponible,-70.700264,-33.439362,Punto Bip!,"Carga de tarjeta, Consulta de saldo, Activacion de carga remota"
237,93164,Dana,Augusto Matte 2292,QUINTA NORMAL,No hay informacion disponible,-70.690102,-33.422424,Punto Bip!,"Carga de tarjeta, Consulta de saldo, Activacion de carga remota"
238,93168,Miguel Pacheco,Salvador Gutierrez 5032,QUINTA NORMAL,No hay informacion disponible,-70.703529,-33.424698,Punto Bip!,"Carga de tarjeta, Consulta de saldo, Activacion de carga remota"
239,93172,Minimarket Danae,Lo Espinoza 2858,QUINTA NORMAL,No hay informacion disponible,-70.706459,-33.412102,Punto Bip!,"Carga de tarjeta, Consulta de saldo, Activacion de carga remota"
240,93175,Macarena,Mapocho 5798,QUINTA NORMAL,No hay informacion disponible,-70.714333,-33.426826,Punto Bip!,"Carga de tarjeta, Consulta de saldo, Activacion de carga remota"
241,93180,Ibanez,Padre Tadeo 5404,QUINTA NORMAL,No hay informacion disponible,-70.708534,-33.426655,Punto Bip!,"Carga de tarjeta, Consulta de saldo, Activacion de carga remota"
242,93186,Yasna Y Carlitos,Salvador Gutierrez 6113,CERRO NAVIA,No hay informacion disponible,-70.718124,-33.421494,Punto Bip!,"Carga de tarjeta, Consulta de saldo, Activacion de carga remota"
243,93188,Mi Chiquita,Jose Joaquin Perez 8007 Local B,CERRO NAVIA,No hay informacion disponible,-70.743156,-33.429695,Punto Bip!,"Carga de tarjeta, Consulta de saldo, Activacion de carga remota"
244,93200,Comercial M Y F,Lanalhue 1858,CERRO NAVIA,No hay informacion disponible,-70.767464,-33.415241,Punto Bip!,"Carga de tarjeta, Consulta de saldo, Activacion de carga remota"
245,93206,Victoria,Sara Gajardo 6286,CERRO NAVIA,No hay informacion disponible,-70.719727,-33.418495,Punto Bip!,"Carga de tarjeta, Consulta de saldo, Activacion de carga remota"
246,93207,Aguchave,Maximo Gorki 2195,CERRO NAVIA,No hay informacion disponible,-70.727264,-33.417313,Punto Bip!,"Carga de tarjeta, Consulta de saldo, Activacion de carga remota"
247,93209,Botilleria Geraldine Cerr,Rene Oliva 1144,CERRO NAVIA,No hay informacion disponible,-70.733291,-33.434672,Punto Bip!,"Carga de tarjeta, Consulta de saldo, Activacion de carga remota"
248,93210,El Nacho,Juan Bautista Inostroza 7840,CERRO NAVIA,No hay informacion disponible,-70.746841,-33.421234,Punto Bip!,"Carga de tarjeta, Consulta de saldo, Activacion de carga remota"
249,93211,Donde La Abuela,Pje. Kasama 1672,CERRO NAVIA,No hay informacion disponible,-70.740746,-33.415581,Punto Bip!,"Carga de tarjeta, Consulta de saldo, Activacion de carga remota"
250,93228,Audina Diaz,Pje. Sortilegio 1771,CERRO NAVIA,No hay informacion disponible,-70.754349,-33.414524,Punto Bip!,"Carga de tarjeta, Consulta de saldo, Activacion de carga remota"
251,93229,Com Magaly,La Capilla 7328,CERRO NAVIA,No hay informacion disponible,-70.739464,-33.415150,Punto Bip!,"Carga de tarjeta, Consulta de saldo, Activacion de carga remota"
252,93249,El Naranjo,Rivadavia 9175,LAS CONDES,No hay informacion disponible,-70.533669,-33.421810,Punto Bip!,"Carga de tarjeta, Consulta de saldo, Activacion de carga remota"
253,93253,El Cisne,Claudio Arrau 781,EL BOSQUE,No hay informacion disponible,-70.674782,-33.566128,Punto Bip!,"Carga de tarjeta, Consulta de saldo, Activacion de carga remota"
254,93260,Com Deutschi,Manuel Rodriguez 1708,RENCA,No hay informacion disponible,-70.722847,-33.397205,Punto Bip!,"Carga de tarjeta, Consulta de saldo, Activacion de carga remota"
255,93265,Bazar Nor Yen,Rio Douro 8159,CERRO NAVIA,No hay informacion disponible,-70.755013,-33.419098,Punto Bip!,"Carga de tarjeta, Consulta de saldo, Activacion de carga remota"
256,93270,El Guaton Vera,Mapocho Sur 7824,CERRO NAVIA,No hay informacion disponible,-70.746758,-33.422424,Punto Bip!,"Carga de tarjeta, Consulta de saldo, Activacion de carga remota"
257,93300,Erbi - Santa Rosa,Santa Rosa 905,SANTIAGO,No hay informacion disponible,-70.643959,-33.456024,Punto Bip!,"Carga de tarjeta, Consulta de saldo, Activacion de carga remota"
258,93313,El Cristo,Caleta Agua Dulce 1226,PUENTE ALTO,No hay informacion disponible,-70.562508,-33.597321,Punto Bip!,"Carga de tarjeta, Consulta de saldo, Activacion de carga remota"
259,93314,Luly,Viða Del Mar 6403 Dpto. 13 A,LA FLORIDA,No hay informacion disponible,-70.588127,-33.514561,Punto Bip!,"Carga de tarjeta, Consulta de saldo, Activacion de carga remota"
260,93317,Almacen La Esquina,Bahia Fitz Roy 1640,PUENTE ALTO,No hay informacion disponible,-70.601334,-33.573059,Punto Bip!,"Carga de tarjeta, Consulta de saldo, Activacion de carga remota"
261,93346,Cibergamers,Saladillo 02486,PUENTE ALTO,No hay informacion disponible,-70.554802,-33.580532,Punto Bip!,"Carga de tarjeta, Consulta de saldo, Activacion de carga remota"
262,93361,La Campana,La Rioja 2085,QUINTA NORMAL,No hay informacion disponible,-70.711700,-33.421059,Punto Bip!,"Carga de tarjeta, Consulta de saldo, Activacion de carga remota"
263,93401,Rene,Av. Ramon Venegas 3120,PUENTE ALTO,No hay informacion disponible,-70.556236,-33.580608,Punto Bip!,"Carga de tarjeta, Consulta de saldo, Activacion de carga remota"
264,93405,Marsan,Pje. Las Lluvias 1913,PUENTE ALTO,No hay informacion disponible,-70.568199,-33.594501,Punto Bip!,"Carga de tarjeta, Consulta de saldo, Activacion de carga remota"
265,93414,Marsan,Av. San Carlos 314,PUENTE ALTO,No hay informacion disponible,-70.573126,-33.597380,Punto Bip!,"Carga de tarjeta, Consulta de saldo, Activacion de carga remota"
266,93421,El Chayavientos,Chayavientos 3033,PUENTE ALTO,No hay informacion disponible,-70.571312,-33.582256,Punto Bip!,"Carga de tarjeta, Consulta de saldo, Activacion de carga remota"
267,93435,Trinidad,Parque Institucional 0997,PUENTE ALTO,No hay informacion disponible,-70.571823,-33.571880,Punto Bip!,"Carga de tarjeta, Consulta de saldo, Activacion de carga remota"
268,93436,Carniceria Rp,Luis Matte Larrain 02407,PUENTE ALTO,No hay informacion disponible,-70.555092,-33.584435,Punto Bip!,"Carga de tarjeta, Consulta de saldo, Activacion de carga remota"
269,93440,Gladys Hernandez Flores P,El Patio 0585,PUENTE ALTO,No hay informacion disponible,-70.575844,-33.576141,Punto Bip!,"Carga de tarjeta, Consulta de saldo, Activacion de carga remota"
270,93444,El Alba,Lago Todos Los Santos 05717,PUENTE ALTO,No hay informacion disponible,-70.558151,-33.550934,Punto Bip!,"Carga de tarjeta, Consulta de saldo, Activacion de carga remota"
271,93445,Bazar Vikingo,Gabriela Oriente 01099,PUENTE ALTO,No hay informacion disponible,-70.569374,-33.576824,Punto Bip!,"Carga de tarjeta, Consulta de saldo, Activacion de carga remota"
272,93446,Centro T Y T,Chiapa 2711,PUENTE ALTO,No hay informacion disponible,-70.599785,-33.587933,Punto Bip!,"Carga de tarjeta, Consulta de saldo, Activacion de carga remota"
273,93447,Nocedal,Nocedal 725,PUENTE ALTO,No hay informacion disponible,-70.597000,-33.606964,Punto Bip!,"Carga de tarjeta, Consulta de saldo, Activacion de carga remota"
274,93451,Donde Margarita,Colombia 9027,LA FLORIDA,No hay informacion disponible,-70.584930,-33.536488,Punto Bip!,"Carga de tarjeta, Consulta de saldo, Activacion de carga remota"
275,93454,Enrique Sanhueza Osses,Walker Martinez Esq. Av. La Florida Sur,LA FLORIDA,No hay informacion disponible,-70.578181,-33.522589,Punto Bip!,"Carga de tarjeta, Consulta de saldo, Activacion de carga remota"
276,93455,Kiosco Julia,Rojas Magallanes Esq. Av. La Florida,LA FLORIDA,No hay informacion disponible,-70.573155,-33.535531,Punto Bip!,"Carga de tarjeta, Consulta de saldo, Activacion de carga remota"
